
$GPGGA,091204.000,1335.6634,N,10048.4212,E,2,10,0.8,27.3,M,-26.9,M,1.8,0000*62
$GPGSA,A,3,04,28,02,27,17,05,08,09,10,13,,,1.5,0.8,1.2*35
$GPRMC,091204.000,A,1335.6634,N,10048.4212,E,53.08,102.38,021010,,*32
$GPGGA,091205.000,1335.6603,N,10048.4359,E,2,10,0.8,27.3,M,-26.9,M,0.8,0000*68
$GPGSA,A,3,04,28,02,27,17,05,08,09,10,13,,,1.5,0.8,1.2*35
$GPRMC,091205.000,A,1335.6603,N,10048.4359,E,52.25,102.44,021010,,*3C
$GPGGA,091206.000,1335.6571,N,10048.4504,E,2,10,0.8,27.2,M,-26.9,M,0.8,0000*62
$GPGSA,A,3,04,28,02,27,17,05,08,09,10,13,,,1.5,0.8,1.2*35
$GPRMC,091206.000,A,1335.6571,N,10048.4504,E,51.91,102.44,021010,,*3B
$GPGGA,091207.000,1335.6540,N,10048.4648,E,2,10,0.8,27.0,M,-26.9,M,0.8,0000*68
$GPGSA,A,3,04,28,02,27,17,05,08,09,10,13,,,1.5,0.8,1.2*35
$GPRMC,091207.000,A,1335.6540,N,10048.4648,E,51.71,102.51,021010,,*39
$GPGGA,091208.000,1335.6509,N,10048.4792,E,2,10,0.8,27.0,M,-26.9,M,1.8,0000*6D
$GPGSA,A,3,04,28,02,27,17,05,08,09,10,13,,,1.5,0.8,1.2*35
$GPGSV,3,1,12,10,55,177,35,04,52,339,35,28,48,142,36,02,43,281,37*7C
$GPGSV,3,2,12,17,38,042,34,27,17,274,33,05,16,204,29,09,13,285,31*7C
$GPGSV,3,3,12,08,07,169,26,13,05,105,24,12,00,324,23,42,42,105,31*7B
$GPRMC,091208.000,A,1335.6509,N,10048.4792,E,51.73,102.50,021010,,*3E
$GPGGA,091209.000,1335.6478,N,10048.4936,E,2,10,0.8,26.8,M,-26.9,M,0.8,0000*63
$GPGSA,A,3,04,28,02,27,17,05,08,09,10,13,,,1.5,0.8,1.2*35
$GPRMC,091209.000,A,1335.6478,N,10048.4936,E,52.06,102.19,021010,,*34
$GPGGA,091210.000,1335.6447,N,10048.5082,E,2,10,0.8,26.6,M,-26.9,M,1.8,0000*6F
$GPGSA,A,3,04,28,02,27,17,05,08,09,10,13,,,1.5,0.8,1.2*35
$GPRMC,091210.000,A,1335.6447,N,10048.5082,E,52.46,102.26,021010,,*3F
$GPGGA,091211.000,1335.6417,N,10048.5229,E,2,10,0.8,26.3,M,-26.9,M,0.8,0000*6C
$GPGSA,A,3,04,28,02,27,17,05,08,09,10,13,,,1.5,0.8,1.2*35
$GPRMC,091211.000,A,1335.6417,N,10048.5229,E,52.68,102.46,021010,,*32
$GPGGA,091212.000,1335.6386,N,10048.5376,E,2,10,0.8,26.2,M,-26.9,M,0.8,0000*6A
$GPGSA,A,3,04,28,02,27,17,05,08,09,10,13,,,1.5,0.8,1.2*35
$GPRMC,091212.000,A,1335.6386,N,10048.5376,E,52.86,102.45,021010,,*36
$GPGGA,091213.000,1335.6354,N,10048.5523,E,2,10,0.8,26.0,M,-26.9,M,0.8,0000*60
$GPGSA,A,3,04,28,02,27,17,05,08,09,10,13,,,1.5,0.8,1.2*35
$GPGSV,3,1,12,10,55,177,36,04,52,340,36,28,48,142,36,02,43,282,38*7E
$GPGSV,3,2,12,17,38,043,34,27,17,273,34,05,16,204,31,09,13,285,32*77
$GPGSV,3,3,12,08,07,169,27,13,05,105,25,12,00,324,23,42,42,105,32*78
$GPRMC,091213.000,A,1335.6354,N,10048.5523,E,52.99,102.45,021010,,*30
$GPGGA,091214.000,1335.6323,N,10048.5671,E,2,10,0.8,25.9,M,-26.9,M,0.8,0000*69
$GPGSA,A,3,04,28,02,27,17,05,08,09,10,13,,,1.5,0.8,1.2*35
$GPRMC,091214.000,A,1335.6323,N,10048.5671,E,53.03,102.28,021010,,*3A
$GPGGA,091215.000,1335.6292,N,10048.5818,E,2,10,0.8,26.0,M,-26.9,M,1.8,0000*69
$GPGSA,A,3,04,28,02,27,17,05,08,09,10,13,,,1.5,0.8,1.2*35
$GPRMC,091215.000,A,1335.6292,N,10048.5818,E,53.02,102.08,021010,,*32
$GPGGA,091216.000,1335.6262,N,10048.5966,E,2,10,0.8,26.0,M,-26.9,M,2.8,0000*6E
$GPGSA,A,3,04,28,02,27,17,05,08,09,10,13,,,1.5,0.8,1.2*35
$GPRMC,091216.000,A,1335.6262,N,10048.5966,E,52.96,101.89,021010,,*30
$GPGGA,091217.000,1335.6231,N,10048.6114,E,2,10,0.8,26.1,M,-26.9,M,0.8,0000*64
$GPGSA,A,3,04,28,02,27,17,05,08,09,10,13,,,1.5,0.8,1.2*35
$GPRMC,091217.000,A,1335.6231,N,10048.6114,E,52.98,101.78,021010,,*39
$GPGGA,091218.000,1335.6201,N,10048.6262,E,2,10,0.8,26.2,M,-26.9,M,0.8,0000*69
$GPGSA,A,3,04,28,02,27,17,05,08,09,10,13,,,1.5,0.8,1.2*35
$GPGSV,3,1,12,10,55,177,37,04,52,340,37,28,48,142,37,02,43,282,39*7E
$GPGSV,3,2,12,17,38,043,35,27,17,273,35,05,16,204,32,09,13,285,32*74
$GPGSV,3,3,12,08,07,169,30,13,05,105,30,12,00,324,18,42,42,105,33*73
$GPRMC,091218.000,A,1335.6201,N,10048.6262,E,52.87,101.79,021010,,*38
$GPGGA,091219.000,1335.6170,N,10048.6409,E,2,10,0.8,26.4,M,-26.9,M,0.8,0000*60
$GPGSA,A,3,04,28,02,27,17,05,08,09,10,13,,,1.5,0.8,1.2*35
$GPRMC,091219.000,A,1335.6170,N,10048.6409,E,52.82,101.87,021010,,*33
$GPGGA,091220.000,1335.6140,N,10048.6556,E,2,10,0.8,26.5,M,-26.9,M,1.8,0000*62
$GPGSA,A,3,04,28,02,27,17,05,08,09,10,13,,,1.5,0.8,1.2*35
$GPRMC,091220.000,A,1335.6140,N,10048.6556,E,52.76,101.95,021010,,*39
$GPGGA,091221.000,1335.6109,N,10048.6703,E,2,10,0.8,26.7,M,-26.9,M,2.8,0000*6D
$GPGSA,A,3,04,28,02,27,17,05,08,09,10,13,,,1.5,0.8,1.2*35
$GPRMC,091221.000,A,1335.6109,N,10048.6703,E,52.70,101.93,021010,,*37
$GPGGA,091222.000,1335.6078,N,10048.6849,E,2,10,0.8,26.8,M,-26.9,M,3.8,0000*66
$GPGSA,A,3,04,28,02,27,17,05,08,09,10,13,,,1.5,0.8,1.2*35
$GPRMC,091222.000,A,1335.6078,N,10048.6849,E,52.66,102.11,021010,,*3C
$GPGGA,091223.000,1335.6047,N,10048.6996,E,2,10,0.8,26.9,M,-26.9,M,0.8,0000*6A
$GPGSA,A,3,04,28,02,27,17,05,08,09,10,13,,,1.5,0.8,1.2*35
$GPGSV,3,1,12,10,55,177,37,04,52,340,38,28,48,142,37,02,43,282,39*71
$GPGSV,3,2,12,17,38,043,36,27,17,273,36,05,16,204,32,09,13,285,33*75
$GPGSV,3,3,12,08,07,169,31,13,05,105,30,12,00,324,,42,42,105,33*7B
$GPRMC,091223.000,A,1335.6047,N,10048.6996,E,52.58,102.21,021010,,*3C
$GPGGA,091224.000,1335.6016,N,10048.7142,E,2,10,0.8,27.0,M,-26.9,M,0.8,0000*61
$GPGSA,A,3,04,28,02,27,17,05,08,09,10,13,,,1.5,0.8,1.2*35
$GPRMC,091224.000,A,1335.6016,N,10048.7142,E,52.54,102.25,021010,,*37
$GPGGA,091225.000,1335.5985,N,10048.7288,E,2,10,0.8,27.0,M,-26.9,M,0.8,0000*65
$GPGSA,A,3,04,28,02,27,17,05,08,09,10,13,,,1.5,0.8,1.2*35
$GPRMC,091225.000,A,1335.5985,N,10048.7288,E,52.44,102.41,021010,,*30
$GPGGA,091226.000,1335.5953,N,10048.7434,E,2,10,0.8,27.1,M,-26.9,M,1.8,0000*6C
$GPGSA,A,3,04,28,02,27,17,05,08,09,10,13,,,1.5,0.8,1.2*35
$GPRMC,091226.000,A,1335.5953,N,10048.7434,E,52.30,102.48,021010,,*33
$GPGGA,091227.000,1335.5922,N,10048.7579,E,2,10,0.8,27.2,M,-26.9,M,2.8,0000*63
$GPGSA,A,3,04,28,02,27,17,05,08,09,10,13,,,1.5,0.8,1.2*35
$GPRMC,091227.000,A,1335.5922,N,10048.7579,E,52.00,102.38,021010,,*38
$GPGGA,091228.000,1335.5891,N,10048.7724,E,2,10,0.8,27.2,M,-26.9,M,0.8,0000*6D
$GPGSA,A,3,04,28,02,27,17,05,08,09,10,13,,,1.5,0.8,1.2*35
$GPGSV,3,1,12,10,55,177,38,04,52,340,38,28,48,142,38,02,43,282,40*7F
$GPGSV,3,2,12,17,38,043,36,27,17,273,37,05,16,204,33,09,13,285,33*75
$GPGSV,3,3,12,08,07,169,31,13,05,105,30,12,00,324,,42,42,105,33*7B
$GPRMC,091228.000,A,1335.5891,N,10048.7724,E,51.81,102.13,021010,,*37
$GPGGA,091229.000,1335.5861,N,10048.7868,E,2,10,0.8,27.3,M,-26.9,M,0.8,0000*65
$GPGSA,A,3,04,28,02,27,17,05,08,09,10,13,,,1.5,0.8,1.2*35
$GPRMC,091229.000,A,1335.5861,N,10048.7868,E,51.70,102.05,021010,,*37
$GPGGA,091230.000,1335.5831,N,10048.8012,E,2,10,0.8,27.3,M,-26.9,M,0.8,0000*62
$GPGSA,A,3,04,28,02,27,17,05,08,09,10,13,,,1.5,0.8,1.2*35
$GPRMC,091230.000,A,1335.5831,N,10048.8012,E,51.59,102.14,021010,,*3B
$GPGGA,091231.000,1335.5800,N,10048.8156,E,2,10,0.8,27.3,M,-26.9,M,0.8,0000*60
$GPGSA,A,3,04,28,02,27,17,05,08,09,10,13,,,1.5,0.8,1.2*35
$GPRMC,091231.000,A,1335.5800,N,10048.8156,E,51.61,102.30,021010,,*34
$GPGGA,091232.000,1335.5769,N,10048.8299,E,2,10,0.8,27.3,M,-26.9,M,0.8,0000*63
$GPGSA,A,3,04,28,02,27,17,05,08,09,10,13,,,1.5,0.8,1.2*35
$GPRMC,091232.000,A,1335.5769,N,10048.8299,E,51.64,102.47,021010,,*32
$GPGGA,091233.000,1335.5738,N,10048.8443,E,2,10,0.8,27.3,M,-26.9,M,1.8,0000*66
$GPGSA,A,3,04,28,02,27,17,05,08,09,10,13,,,1.5,0.8,1.2*35
$GPGSV,3,1,12,10,55,177,38,04,52,340,39,28,48,142,38,02,43,282,40*7E
$GPGSV,3,2,12,17,38,043,36,27,17,273,37,05,16,204,33,09,13,285,34*72
$GPGSV,3,3,12,08,07,169,31,13,05,105,30,12,00,324,23,42,42,105,33*7A
$GPRMC,091233.000,A,1335.5738,N,10048.8443,E,51.63,102.43,021010,,*35
$GPGGA,091234.000,1335.5708,N,10048.8587,E,2,10,0.8,27.3,M,-26.9,M,0.8,0000*6A
$GPGSA,A,3,04,28,02,27,17,05,08,09,10,13,,,1.5,0.8,1.2*35
$GPRMC,091234.000,A,1335.5708,N,10048.8587,E,51.61,102.23,021010,,*3C
$GPGGA,091235.000,1335.5677,N,10048.8731,E,2,10,0.8,27.3,M,-26.9,M,0.8,0000*6D
$GPGSA,A,3,04,28,02,27,17,05,08,09,10,13,,,1.5,0.8,1.2*35
$GPRMC,091235.000,A,1335.5677,N,10048.8731,E,51.66,102.09,021010,,*34
$GPGGA,091236.000,1335.5647,N,10048.8875,E,2,10,0.8,27.4,M,-26.9,M,0.8,0000*65
$GPGSA,A,3,04,28,02,27,17,05,08,09,10,13,,,1.5,0.8,1.2*35
$GPRMC,091236.000,A,1335.5647,N,10048.8875,E,51.68,102.05,021010,,*39
$GPGGA,091237.000,1335.5616,N,10048.9019,E,2,10,0.8,27.4,M,-26.9,M,0.8,0000*63
$GPGSA,A,3,04,28,02,27,17,05,08,09,10,13,,,1.5,0.8,1.2*35
$GPRMC,091237.000,A,1335.5616,N,10048.9019,E,51.92,102.32,021010,,*3E
$GPGGA,091238.000,1335.5585,N,10048.9164,E,2,10,0.8,27.5,M,-26.9,M,1.8,0000*6E
$GPGSA,A,3,04,28,02,27,17,05,08,09,10,13,,,1.5,0.8,1.2*35
$GPGSV,3,1,12,10,55,177,39,04,52,340,39,28,48,142,38,02,43,282,40*7F
$GPGSV,3,2,12,17,38,043,36,27,17,273,37,05,16,204,33,09,13,285,34*72
$GPGSV,3,3,12,08,07,169,31,13,05,105,30,12,00,324,29,42,42,105,33*70
$GPRMC,091238.000,A,1335.5585,N,10048.9164,E,52.22,102.56,021010,,*39
$GPGGA,091239.000,1335.5553,N,10048.9309,E,2,10,0.8,27.6,M,-26.9,M,2.8,0000*6D
$GPGSA,A,3,04,28,02,27,17,05,08,09,10,13,,,1.5,0.8,1.2*35
$GPRMC,091239.000,A,1335.5553,N,10048.9309,E,52.49,102.59,021010,,*38
$GPGGA,091240.000,1335.5521,N,10048.9456,E,2,10,0.8,27.7,M,-26.9,M,0.8,0000*68
$GPGSA,A,3,04,28,02,27,17,05,08,09,10,13,,,1.5,0.8,1.2*35
$GPRMC,091240.000,A,1335.5521,N,10048.9456,E,52.72,102.52,021010,,*3D
$GPGGA,091241.000,1335.5490,N,10048.9603,E,2,10,0.8,27.8,M,-26.9,M,0.8,0000*6F
$GPGSA,A,3,04,28,02,27,17,05,08,09,10,13,,,1.5,0.8,1.2*35
$GPRMC,091241.000,A,1335.5490,N,10048.9603,E,52.96,102.30,021010,,*3B
$GPGGA,091242.000,1335.5458,N,10048.9751,E,2,10,0.8,27.8,M,-26.9,M,0.8,0000*6E
$GPGSA,A,3,04,28,02,27,17,05,08,09,10,13,,,1.5,0.8,1.2*35
$GPRMC,091242.000,A,1335.5458,N,10048.9751,E,53.26,102.28,021010,,*39
$GPGGA,091243.000,1335.5427,N,10048.9899,E,2,10,0.8,27.9,M,-26.9,M,0.8,0000*6D
$GPGSA,A,3,04,28,02,27,17,05,08,09,10,13,,,1.5,0.8,1.2*35
$GPGSV,3,1,12,10,55,177,39,04,52,340,39,28,48,142,38,02,43,282,40*7F
$GPGSV,3,2,12,17,38,043,37,27,17,273,37,05,16,204,33,09,13,285,34*73
$GPGSV,3,3,12,08,07,169,31,13,05,105,30,12,00,324,31,42,42,105,33*79
$GPRMC,091243.000,A,1335.5427,N,10048.9899,E,53.34,102.19,021010,,*3A
$GPGGA,091244.000,1335.5395,N,10049.0048,E,2,10,0.8,27.9,M,-26.9,M,1.8,0000*69
$GPGSA,A,3,04,28,02,27,17,05,08,09,10,13,,,1.5,0.8,1.2*35
$GPRMC,091244.000,A,1335.5395,N,10049.0048,E,53.37,102.20,021010,,*36
$GPGGA,091245.000,1335.5363,N,10049.0196,E,2,10,0.8,27.9,M,-26.9,M,0.8,0000*62
$GPGSA,A,3,04,28,02,27,17,05,08,09,10,13,,,1.5,0.8,1.2*35
$GPRMC,091245.000,A,1335.5363,N,10049.0196,E,53.26,102.47,021010,,*3D
$GPGGA,091246.000,1335.5331,N,10049.0344,E,2,10,0.8,28.0,M,-26.9,M,1.8,0000*6C
$GPGSA,A,3,04,28,02,27,17,05,08,09,10,13,,,1.5,0.8,1.2*35
$GPRMC,091246.000,A,1335.5331,N,10049.0344,E,53.15,102.55,021010,,*37
$GPGGA,091247.000,1335.5299,N,10049.0492,E,2,10,0.8,28.1,M,-26.9,M,0.8,0000*62
$GPGSA,A,3,04,28,02,27,17,05,08,09,10,13,,,1.5,0.8,1.2*35
$GPRMC,091247.000,A,1335.5299,N,10049.0492,E,53.04,102.54,021010,,*38
$GPGGA,091248.000,1335.5267,N,10049.0640,E,2,10,0.8,28.1,M,-26.9,M,0.8,0000*61
$GPGSA,A,3,04,28,02,27,17,05,08,09,10,13,,,1.5,0.8,1.2*35
$GPGSV,3,1,12,10,56,177,39,04,52,340,39,28,48,142,38,02,43,282,40*7C
$GPGSV,3,2,12,17,38,043,37,27,17,273,37,05,16,204,33,09,13,284,34*72
$GPGSV,3,3,12,08,07,169,32,13,05,104,30,12,00,324,32,42,42,105,33*78
$GPRMC,091248.000,A,1335.5267,N,10049.0640,E,53.08,102.46,021010,,*34
$GPGGA,091249.000,1335.5235,N,10049.0787,E,2,10,0.8,28.2,M,-26.9,M,0.8,0000*6E
$GPGSA,A,3,04,28,02,27,17,05,08,09,10,13,,,1.5,0.8,1.2*35
$GPRMC,091249.000,A,1335.5235,N,10049.0787,E,52.96,102.38,021010,,*37
$GPGGA,091250.000,1335.5204,N,10049.0935,E,2,10,0.8,28.3,M,-26.9,M,1.8,0000*63
$GPGSA,A,3,04,28,02,27,17,05,08,09,10,13,,,1.5,0.8,1.2*35
$GPRMC,091250.000,A,1335.5204,N,10049.0935,E,52.86,102.21,021010,,*33
$GPGGA,091251.000,1335.5173,N,10049.1082,E,2,10,0.8,28.4,M,-26.9,M,2.8,0000*61
$GPGSA,A,3,04,28,02,27,17,05,08,09,10,13,,,1.5,0.8,1.2*35
$GPRMC,091251.000,A,1335.5173,N,10049.1082,E,52.74,101.90,021010,,*31
$GPGGA,091252.000,1335.5143,N,10049.1229,E,2,10,0.8,28.5,M,-26.9,M,3.8,0000*62
$GPGSA,A,3,04,28,02,27,17,05,08,09,10,13,,,1.5,0.8,1.2*35
$GPRMC,091252.000,A,1335.5143,N,10049.1229,E,52.59,101.73,021010,,*30
$GPGGA,091253.000,1335.5113,N,10049.1375,E,2,10,0.8,28.5,M,-26.9,M,0.8,0000*6D
$GPGSA,A,3,04,28,02,27,17,05,08,09,10,13,,,1.5,0.8,1.2*35
$GPGSV,3,1,12,10,56,177,39,04,52,340,39,28,48,142,39,02,43,282,41*7C
$GPGSV,3,2,12,17,38,043,36,27,17,273,38,05,16,204,34,09,13,284,34*7B
$GPGSV,3,3,12,08,07,169,32,13,05,104,30,12,00,324,29,42,42,105,34*75
$GPRMC,091253.000,A,1335.5113,N,10049.1375,E,51.81,101.66,021010,,*3E
$GPGGA,091254.000,1335.5084,N,10049.1518,E,2,10,0.8,28.6,M,-26.9,M,0.8,0000*6B
$GPGSA,A,3,04,28,02,27,17,05,08,09,10,13,,,1.5,0.8,1.2*35
$GPRMC,091254.000,A,1335.5084,N,10049.1518,E,50.74,101.92,021010,,*3B
$GPGGA,091255.000,1335.5054,N,10049.1658,E,2,10,0.8,28.6,M,-26.9,M,0.8,0000*60
$GPGSA,A,3,04,28,02,27,17,05,08,09,10,13,,,1.5,0.8,1.2*35
$GPRMC,091255.000,A,1335.5054,N,10049.1658,E,50.33,102.28,021010,,*31
$GPGGA,091256.000,1335.5025,N,10049.1798,E,2,10,0.8,28.7,M,-26.9,M,1.8,0000*68
$GPGSA,A,3,04,28,02,27,17,05,08,09,10,13,,,1.5,0.8,1.2*35
$GPRMC,091256.000,A,1335.5025,N,10049.1798,E,50.08,102.27,021010,,*3E
$GPGGA,091257.000,1335.4995,N,10049.1937,E,2,10,0.8,28.7,M,-26.9,M,2.8,0000*62
$GPGSA,A,3,04,28,02,27,17,05,08,09,10,13,,,1.5,0.8,1.2*35
$GPRMC,091257.000,A,1335.4995,N,10049.1937,E,49.87,102.05,021010,,*38
$GPGGA,091258.000,1335.4966,N,10049.2076,E,2,10,0.8,28.7,M,-26.9,M,3.8,0000*6F
$GPGSA,A,3,04,28,02,27,17,05,08,09,10,13,,,1.5,0.8,1.2*35
$GPGSV,3,1,12,10,56,177,39,04,52,340,39,28,48,142,39,02,43,282,41*7C
$GPGSV,3,2,12,17,38,043,37,27,17,273,38,05,16,204,34,09,13,284,34*7A
$GPGSV,3,3,12,08,07,169,32,13,05,104,30,12,00,324,29,42,42,105,33*72
$GPRMC,091258.000,A,1335.4966,N,10049.2076,E,49.79,101.95,021010,,*3F
$GPGGA,091259.000,1335.4937,N,10049.2215,E,2,10,0.8,28.7,M,-26.9,M,0.8,0000*6E
$GPGSA,A,3,04,28,02,27,17,05,08,09,10,13,,,1.5,0.8,1.2*35
$GPRMC,091259.000,A,1335.4937,N,10049.2215,E,49.75,102.11,021010,,*3E
$GPGGA,091300.000,1335.4908,N,10049.2353,E,2,10,0.8,28.8,M,-26.9,M,0.8,0000*63
$GPGSA,A,3,04,28,02,27,17,05,08,09,10,13,,,1.5,0.8,1.2*35
$GPRMC,091300.000,A,1335.4908,N,10049.2353,E,49.44,102.17,021010,,*38
$GPGGA,091301.000,1335.4879,N,10049.2491,E,2,10,0.8,28.8,M,-26.9,M,0.8,0000*6C
$GPGSA,A,3,04,28,02,27,17,05,08,09,10,13,,,1.5,0.8,1.2*35
$GPRMC,091301.000,A,1335.4879,N,10049.2491,E,49.20,102.25,021010,,*34
$GPGGA,091302.000,1335.4850,N,10049.2627,E,2,10,0.8,28.7,M,-26.9,M,1.8,0000*65
$GPGSA,A,3,04,28,02,27,17,05,08,09,10,13,,,1.5,0.8,1.2*35
$GPRMC,091302.000,A,1335.4850,N,10049.2627,E,49.07,102.47,021010,,*32
$GPGGA,091303.000,1335.4820,N,10049.2763,E,2,10,0.8,28.7,M,-26.9,M,2.8,0000*61
$GPGSA,A,3,04,28,02,27,17,05,08,09,10,13,,,1.5,0.8,1.2*35
$GPGSV,3,1,12,10,56,177,39,04,52,340,40,28,48,142,39,02,43,282,41*72
$GPGSV,3,2,12,17,38,043,37,27,17,273,38,05,16,204,34,09,13,284,35*7B
$GPGSV,3,3,12,08,07,169,32,13,05,104,30,12,00,324,29,42,42,105,34*75
$GPRMC,091303.000,A,1335.4820,N,10049.2763,E,48.91,102.50,021010,,*3D
$GPGGA,091304.000,1335.4791,N,10049.2897,E,2,10,0.8,28.7,M,-26.9,M,3.8,0000*66
$GPGSA,A,3,04,28,02,27,17,05,08,09,10,13,,,1.5,0.8,1.2*35
$GPRMC,091304.000,A,1335.4791,N,10049.2897,E,48.20,102.16,021010,,*33
$GPGGA,091305.000,1335.4763,N,10049.3029,E,2,10,0.8,28.7,M,-26.9,M,4.8,0000*61
$GPGSA,A,3,04,28,02,27,17,05,08,09,10,13,,,1.5,0.8,1.2*35
$GPRMC,091305.000,A,1335.4763,N,10049.3029,E,46.91,102.29,021010,,*3B
$GPGGA,091306.000,1335.4734,N,10049.3159,E,2,10,0.8,28.6,M,-26.9,M,0.8,0000*63
$GPGSA,A,3,04,28,02,27,17,05,08,09,10,13,,,1.5,0.8,1.2*35
$GPRMC,091306.000,A,1335.4734,N,10049.3159,E,46.63,102.52,021010,,*3D
$GPGGA,091307.000,1335.4706,N,10049.3289,E,2,10,0.8,28.6,M,-26.9,M,0.8,0000*6D
$GPGSA,A,3,04,28,02,27,17,05,08,09,10,13,,,1.5,0.8,1.2*35
$GPRMC,091307.000,A,1335.4706,N,10049.3289,E,46.65,102.47,021010,,*31
$GPGGA,091308.000,1335.4678,N,10049.3418,E,2,10,0.8,28.6,M,-26.9,M,1.8,0000*65
$GPGSA,A,3,04,28,02,27,17,05,08,09,10,13,,,1.5,0.8,1.2*35
$GPGSV,3,1,12,10,56,177,40,04,52,340,40,28,48,142,40,02,43,282,42*71
$GPGSV,3,2,12,17,38,043,37,27,17,273,38,05,16,204,35,09,13,284,35*7A
$GPGSV,3,3,12,08,07,169,32,13,05,104,30,12,00,324,30,42,42,105,34*7D
$GPRMC,091308.000,A,1335.4678,N,10049.3418,E,46.77,102.39,021010,,*32
$GPGGA,091309.000,1335.4650,N,10049.3549,E,2,10,0.8,28.6,M,-26.9,M,2.8,0000*68
$GPGSA,A,3,04,28,02,27,17,05,08,09,10,13,,,1.5,0.8,1.2*35
$GPRMC,091309.000,A,1335.4650,N,10049.3549,E,46.95,102.39,021010,,*30
$GPGGA,091310.000,1335.4622,N,10049.3679,E,2,10,0.8,28.6,M,-26.9,M,3.8,0000*64
$GPGSA,A,3,04,28,02,27,17,05,08,09,10,13,,,1.5,0.8,1.2*35
$GPRMC,091310.000,A,1335.4622,N,10049.3679,E,47.18,102.42,021010,,*35
$GPGGA,091311.000,1335.4593,N,10049.3811,E,2,10,0.8,28.7,M,-26.9,M,0.8,0000*6E
$GPGSA,A,3,04,28,02,27,17,05,08,09,10,13,,,1.5,0.8,1.2*35
$GPRMC,091311.000,A,1335.4593,N,10049.3811,E,47.30,102.43,021010,,*36
$GPGGA,091312.000,1335.4565,N,10049.3942,E,2,10,0.8,28.8,M,-26.9,M,0.8,0000*6C
$GPGSA,A,3,04,28,02,27,17,05,08,09,10,13,,,1.5,0.8,1.2*35
$GPRMC,091312.000,A,1335.4565,N,10049.3942,E,47.38,102.44,021010,,*34
$GPGGA,091313.000,1335.4537,N,10049.4074,E,2,10,0.8,28.9,M,-26.9,M,0.8,0000*60
$GPGSA,A,3,04,28,02,27,17,05,08,09,10,13,,,1.5,0.8,1.2*35
$GPGSV,3,1,12,10,56,177,40,04,52,340,40,28,48,142,40,02,43,282,42*71
$GPGSV,3,2,12,17,38,043,37,27,17,273,39,05,16,204,35,09,13,284,36*78
$GPGSV,3,3,12,08,07,169,32,13,05,104,32,12,00,324,31,42,42,105,35*7F
$GPRMC,091313.000,A,1335.4537,N,10049.4074,E,47.47,102.17,021010,,*37
$GPGGA,091314.000,1335.4510,N,10049.4206,E,2,10,0.8,28.9,M,-26.9,M,1.8,0000*64
$GPGSA,A,3,04,28,02,27,17,05,08,09,10,13,,,1.5,0.8,1.2*35
$GPRMC,091314.000,A,1335.4510,N,10049.4206,E,47.61,101.87,021010,,*3C
$GPGGA,091315.000,1335.4483,N,10049.4339,E,2,10,0.8,29.0,M,-26.9,M,2.8,0000*68
$GPGSA,A,3,04,28,02,27,17,05,08,09,10,13,,,1.5,0.8,1.2*35
$GPRMC,091315.000,A,1335.4483,N,10049.4339,E,47.79,101.83,021010,,*36
$GPGGA,091316.000,1335.4455,N,10049.4473,E,2,10,0.8,29.0,M,-26.9,M,0.8,0000*6B
$GPGSA,A,3,04,28,02,27,17,05,08,09,10,13,,,1.5,0.8,1.2*35
$GPRMC,091316.000,A,1335.4455,N,10049.4473,E,47.99,101.92,021010,,*39
$GPGGA,091317.000,1335.4429,N,10049.4607,E,2,10,0.8,28.6,M,-26.9,M,0.8,0000*67
$GPGSA,A,3,04,28,02,27,17,05,08,09,10,13,,,1.5,0.8,1.2*35
$GPRMC,091317.000,A,1335.4429,N,10049.4607,E,48.24,101.97,021010,,*3E
$GPGGA,091318.000,1335.4401,N,10049.4741,E,2,10,0.8,28.2,M,-26.9,M,0.8,0000*65
$GPGSA,A,3,04,28,02,27,17,05,08,09,10,13,,,1.5,0.8,1.2*35
$GPGSV,3,1,12,10,56,177,40,04,52,340,41,28,48,142,41,02,43,282,42*71
$GPGSV,3,2,12,17,38,043,37,27,17,273,39,05,17,204,35,09,13,284,36*79
$GPGSV,3,3,12,08,06,169,33,13,05,104,32,12,00,324,36,42,42,105,36*7B
$GPRMC,091318.000,A,1335.4401,N,10049.4741,E,48.28,102.09,021010,,*30
$GPGGA,091319.000,1335.4374,N,10049.4875,E,2,10,0.8,27.8,M,-26.9,M,0.8,0000*6C
$GPGSA,A,3,04,28,02,27,17,05,08,09,10,13,,,1.5,0.8,1.2*35
$GPRMC,091319.000,A,1335.4374,N,10049.4875,E,48.09,102.24,021010,,*30
$GPGGA,091320.000,1335.4345,N,10049.5009,E,2,10,0.8,27.5,M,-26.9,M,1.8,0000*6A
$GPGSA,A,3,04,28,02,27,17,05,08,09,10,13,,,1.5,0.8,1.2*35
$GPRMC,091320.000,A,1335.4345,N,10049.5009,E,47.91,102.38,021010,,*39
$GPGGA,091321.000,1335.4317,N,10049.5142,E,2,10,0.8,27.1,M,-26.9,M,2.8,0000*65
$GPGSA,A,3,04,28,02,27,17,05,08,09,10,13,,,1.5,0.8,1.2*35
$GPRMC,091321.000,A,1335.4317,N,10049.5142,E,47.68,102.57,021010,,*3E
$GPGGA,091322.000,1335.4288,N,10049.5273,E,2,10,0.8,26.7,M,-26.9,M,3.8,0000*66
$GPGSA,A,3,04,28,02,27,17,05,08,09,10,13,,,1.5,0.8,1.2*35
$GPRMC,091322.000,A,1335.4288,N,10049.5273,E,46.77,102.67,021010,,*37
$GPGGA,091323.000,1335.4260,N,10049.5402,E,2,10,0.8,26.3,M,-26.9,M,0.8,0000*66
$GPGSA,A,3,04,28,02,27,17,05,08,09,10,13,,,1.5,0.8,1.2*35
$GPGSV,3,1,12,10,56,177,41,04,52,340,41,28,48,142,41,02,43,282,43*71
$GPGSV,3,2,12,17,38,043,38,27,17,273,40,05,17,204,36,09,13,284,37*7A
$GPGSV,3,3,12,08,06,169,34,13,05,104,33,12,00,324,36,42,42,105,36*7D
$GPRMC,091323.000,A,1335.4260,N,10049.5402,E,45.70,102.43,021010,,*32
$GPGGA,091324.000,1335.4233,N,10049.5528,E,2,10,0.8,26.1,M,-26.9,M,0.8,0000*6C
$GPGSA,A,3,04,28,02,27,17,05,08,09,10,13,,,1.5,0.8,1.2*35
$GPRMC,091324.000,A,1335.4233,N,10049.5528,E,45.24,102.23,021010,,*3D
$GPGGA,091325.000,1335.4207,N,10049.5653,E,2,10,0.8,25.8,M,-26.9,M,0.8,0000*6F
$GPGSA,A,3,04,28,02,27,17,05,08,09,10,13,,,1.5,0.8,1.2*35
$GPRMC,091325.000,A,1335.4207,N,10049.5653,E,44.59,102.15,021010,,*3A
$GPGGA,091326.000,1335.4181,N,10049.5776,E,2,10,0.8,25.5,M,-26.9,M,1.8,0000*6B
$GPGSA,A,3,04,28,02,27,17,05,08,09,10,13,,,1.5,0.8,1.2*35
$GPRMC,091326.000,A,1335.4181,N,10049.5776,E,43.63,102.17,021010,,*3E
$GPGGA,091327.000,1335.4156,N,10049.5897,E,2,10,0.8,25.3,M,-26.9,M,2.8,0000*65
$GPGSA,A,3,04,28,02,27,17,05,08,09,10,13,,,1.5,0.8,1.2*35
$GPRMC,091327.000,A,1335.4156,N,10049.5897,E,43.32,102.37,021010,,*33
$GPGGA,091328.000,1335.4130,N,10049.6015,E,2,10,0.8,25.1,M,-26.9,M,0.8,0000*6B
$GPGSA,A,3,04,28,02,27,17,05,08,09,10,13,,,1.5,0.8,1.2*35
$GPGSV,3,1,12,10,56,177,42,04,52,341,42,28,47,142,41,02,43,283,43*7E
$GPGSV,3,2,12,17,39,043,38,05,17,204,36,27,17,273,40,09,13,284,38*74
$GPGSV,3,3,12,08,06,169,34,13,05,104,34,12,00,324,31,42,42,105,36*7D
$GPRMC,091328.000,A,1335.4130,N,10049.6015,E,42.32,102.61,021010,,*3F
$GPGGA,091329.000,1335.4104,N,10049.6131,E,2,10,0.8,24.9,M,-26.9,M,0.8,0000*63
$GPGSA,A,3,04,28,02,27,17,05,08,09,10,13,,,1.5,0.8,1.2*35
$GPRMC,091329.000,A,1335.4104,N,10049.6131,E,41.48,102.91,021010,,*3F
$GPGGA,091330.000,1335.4079,N,10049.6245,E,2,10,0.8,24.7,M,-26.9,M,0.8,0000*6E
$GPGSA,A,3,04,28,02,27,17,05,08,09,10,13,,,1.5,0.8,1.2*35
$GPRMC,091330.000,A,1335.4079,N,10049.6245,E,40.71,102.98,021010,,*3E
$GPGGA,091331.000,1335.4053,N,10049.6357,E,2,10,0.8,24.5,M,-26.9,M,0.8,0000*67
$GPGSA,A,3,04,28,02,27,17,05,08,09,10,13,,,1.5,0.8,1.2*35
$GPRMC,091331.000,A,1335.4053,N,10049.6357,E,40.18,103.19,021010,,*32
$GPGGA,091332.000,1335.4028,N,10049.6467,E,2,10,0.8,24.4,M,-26.9,M,0.8,0000*6D
$GPGSA,A,3,04,28,02,27,17,05,08,09,10,13,,,1.5,0.8,1.2*35
$GPRMC,091332.000,A,1335.4028,N,10049.6467,E,39.53,103.45,021010,,*31
$GPGGA,091333.000,1335.4003,N,10049.6576,E,2,10,0.8,24.2,M,-26.9,M,0.8,0000*62
$GPGSA,A,3,04,28,02,27,17,05,08,09,10,13,,,1.5,0.8,1.2*35
$GPGSV,3,1,12,10,56,177,42,04,52,341,42,28,47,142,42,02,43,283,44*7A
$GPGSV,3,2,12,17,39,043,38,05,17,204,37,27,17,273,40,09,13,284,38*75
$GPGSV,3,3,12,08,06,169,34,13,05,104,34,12,00,324,32,42,42,105,37*7F
$GPRMC,091333.000,A,1335.4003,N,10049.6576,E,38.98,103.38,021010,,*34
$GPGGA,091334.000,1335.3978,N,10049.6683,E,2,10,0.8,24.0,M,-26.9,M,1.8,0000*6D
$GPGSA,A,3,04,28,02,27,17,05,08,09,10,13,,,1.5,0.8,1.2*35
$GPRMC,091334.000,A,1335.3978,N,10049.6683,E,38.28,103.16,021010,,*3F
$GPGGA,091335.000,1335.3954,N,10049.6789,E,2,10,0.8,23.9,M,-26.9,M,0.8,0000*66
$GPGSA,A,3,04,28,02,27,17,05,08,09,10,13,,,1.5,0.8,1.2*35
$GPRMC,091335.000,A,1335.3954,N,10049.6789,E,38.25,102.91,021010,,*38
$GPGGA,091336.000,1335.3930,N,10049.6895,E,2,10,0.8,23.9,M,-26.9,M,0.8,0000*65
$GPGSA,A,3,04,28,02,27,17,05,08,09,10,13,,,1.5,0.8,1.2*35
$GPRMC,091336.000,A,1335.3930,N,10049.6895,E,38.47,102.65,021010,,*34
$GPGGA,091337.000,1335.3907,N,10049.7002,E,2,10,0.8,23.8,M,-26.9,M,0.8,0000*66
$GPGSA,A,3,04,28,02,27,17,05,08,09,10,13,,,1.5,0.8,1.2*35
$GPRMC,091337.000,A,1335.3907,N,10049.7002,E,38.81,102.49,021010,,*32
$GPGGA,091338.000,1335.3884,N,10049.7110,E,2,10,0.8,23.8,M,-26.9,M,0.8,0000*61
$GPGSA,A,3,04,28,02,27,17,05,08,09,10,13,,,1.5,0.8,1.2*35
$GPGSV,3,1,12,10,56,177,42,04,52,341,43,28,47,142,42,02,43,283,44*7B
$GPGSV,3,2,12,17,39,043,38,05,17,204,37,27,17,273,41,09,13,284,38*74
$GPGSV,3,3,12,08,06,169,35,13,05,104,33,12,00,324,35,42,42,105,37*7E
$GPRMC,091338.000,A,1335.3884,N,10049.7110,E,39.11,102.35,021010,,*36
$GPGGA,091339.000,1335.3861,N,10049.7219,E,2,10,0.8,23.8,M,-26.9,M,1.8,0000*60
$GPGSA,A,3,04,28,02,27,17,05,08,09,10,13,,,1.5,0.8,1.2*35
$GPRMC,091339.000,A,1335.3861,N,10049.7219,E,39.16,102.26,021010,,*33
$GPGGA,091340.000,1335.3837,N,10049.7328,E,2,10,0.8,23.8,M,-26.9,M,0.8,0000*6F
$GPGSA,A,3,04,28,02,27,17,05,08,09,10,13,,,1.5,0.8,1.2*35
$GPRMC,091340.000,A,1335.3837,N,10049.7328,E,39.07,102.45,021010,,*38
$GPGGA,091341.000,1335.3814,N,10049.7436,E,2,10,0.8,23.8,M,-26.9,M,0.8,0000*67
$GPGSA,A,3,04,28,02,27,17,05,08,09,10,13,,,1.5,0.8,1.2*35
$GPRMC,091341.000,A,1335.3814,N,10049.7436,E,39.17,102.49,021010,,*3D
$GPGGA,091342.000,1335.3790,N,10049.7546,E,2,10,0.8,23.6,M,-26.9,M,0.8,0000*6F
$GPGSA,A,3,04,28,02,27,17,05,08,09,10,13,,,1.5,0.8,1.2*35
$GPRMC,091342.000,A,1335.3790,N,10049.7546,E,39.37,102.46,021010,,*36
$GPGGA,091343.000,1335.3767,N,10049.7655,E,2,10,0.8,23.6,M,-26.9,M,0.8,0000*67
$GPGSA,A,3,04,28,02,27,17,05,08,09,10,13,,,1.5,0.8,1.2*35
$GPGSV,3,1,12,10,56,177,43,04,52,341,43,28,47,142,43,02,43,283,45*7A
$GPGSV,3,2,12,17,39,043,39,05,17,204,38,27,17,273,41,09,13,284,39*7B
$GPGSV,3,3,12,08,06,169,35,13,05,104,32,12,00,324,35,42,42,105,37*7F
$GPRMC,091343.000,A,1335.3767,N,10049.7655,E,39.45,102.36,021010,,*3C
$GPGGA,091344.000,1335.3744,N,10049.7765,E,2,10,0.8,23.5,M,-26.9,M,1.8,0000*61
$GPGSA,A,3,04,28,02,27,17,05,08,09,10,13,,,1.5,0.8,1.2*35
$GPRMC,091344.000,A,1335.3744,N,10049.7765,E,39.55,102.25,021010,,*3B
$GPGGA,091345.000,1335.3720,N,10049.7875,E,2,10,0.8,23.5,M,-26.9,M,0.8,0000*6D
$GPGSA,A,3,04,28,02,27,17,05,08,09,10,13,,,1.5,0.8,1.2*35
$GPRMC,091345.000,A,1335.3720,N,10049.7875,E,39.76,102.18,021010,,*39
$GPGGA,091346.000,1335.3697,N,10049.7986,E,2,10,0.8,23.4,M,-26.9,M,1.8,0000*6E
$GPGSA,A,3,04,28,02,27,17,05,08,09,10,13,,,1.5,0.8,1.2*35
$GPRMC,091346.000,A,1335.3697,N,10049.7986,E,40.06,102.22,021010,,*3A
$GPGGA,091347.000,1335.3673,N,10049.8098,E,2,10,0.8,23.4,M,-26.9,M,0.8,0000*6D
$GPGSA,A,3,04,28,02,27,17,05,08,09,10,13,,,1.5,0.8,1.2*35
$GPRMC,091347.000,A,1335.3673,N,10049.8098,E,40.28,102.16,021010,,*33
$GPGGA,091348.000,1335.3650,N,10049.8211,E,2,10,0.8,23.5,M,-26.9,M,0.8,0000*61
$GPGSA,A,3,04,28,02,27,17,05,08,09,10,13,,,1.5,0.8,1.2*35
$GPGSV,3,1,12,10,56,177,43,04,52,341,44,28,47,142,43,02,43,283,46*7E
$GPGSV,3,2,12,17,39,043,41,05,17,204,39,27,17,273,42,09,13,284,39*76
$GPGSV,3,3,12,08,06,169,36,13,06,104,32,12,00,324,,42,42,105,38*76
$GPRMC,091348.000,A,1335.3650,N,10049.8211,E,40.41,101.92,021010,,*3E
$GPGGA,091349.000,1335.3627,N,10049.8324,E,2,10,0.8,23.5,M,-26.9,M,0.8,0000*67
$GPGSA,A,3,04,28,02,27,17,05,08,09,10,13,,,1.5,0.8,1.2*35
$GPRMC,091349.000,A,1335.3627,N,10049.8324,E,40.62,101.78,021010,,*3D
$GPGGA,091350.000,1335.3604,N,10049.8437,E,2,10,0.8,23.6,M,-26.9,M,1.8,0000*69
$GPGSA,A,3,04,28,02,27,17,05,08,09,10,13,,,1.5,0.8,1.2*35
$GPRMC,091350.000,A,1335.3604,N,10049.8437,E,40.75,101.89,021010,,*39
$GPGGA,091351.000,1335.3580,N,10049.8551,E,2,10,0.8,23.6,M,-26.9,M,2.8,0000*65
$GPGSA,A,3,04,28,02,27,17,05,08,09,10,13,,,1.5,0.8,1.2*35
$GPRMC,091351.000,A,1335.3580,N,10049.8551,E,40.88,101.89,021010,,*34
$GPGGA,091352.000,1335.3557,N,10049.8665,E,2,10,0.8,23.7,M,-26.9,M,3.8,0000*68
$GPGSA,A,3,04,28,02,27,17,05,08,09,10,13,,,1.5,0.8,1.2*35
$GPRMC,091352.000,A,1335.3557,N,10049.8665,E,40.94,101.70,021010,,*32
$GPGGA,091353.000,1335.3534,N,10049.8779,E,2,10,0.8,23.7,M,-26.9,M,0.8,0000*63
$GPGSA,A,3,04,28,02,27,17,05,08,09,10,13,,,1.5,0.8,1.2*35
$GPGSV,3,1,12,10,56,177,44,04,52,341,44,28,47,142,44,02,43,283,46*7E
$GPGSV,3,2,12,17,39,043,41,05,17,204,39,27,17,273,43,09,13,284,40*79
$GPGSV,3,3,12,08,06,169,36,13,06,104,36,12,00,324,31,42,42,105,38*70
$GPRMC,091353.000,A,1335.3534,N,10049.8779,E,40.96,101.46,021010,,*3D
$GPGGA,091354.000,1335.3512,N,10049.8894,E,2,10,0.8,23.7,M,-26.9,M,0.8,0000*6C
$GPGSA,A,3,04,28,02,27,17,05,08,09,10,13,,,1.5,0.8,1.2*35
$GPRMC,091354.000,A,1335.3512,N,10049.8894,E,40.99,101.30,021010,,*3C
$GPGGA,091355.000,1335.3489,N,10049.9008,E,2,10,0.8,23.7,M,-26.9,M,0.8,0000*62
$GPGSA,A,3,04,28,02,27,17,05,08,09,10,13,,,1.5,0.8,1.2*35
$GPRMC,091355.000,A,1335.3489,N,10049.9008,E,40.52,101.43,021010,,*31
$GPGGA,091356.000,1335.3467,N,10049.9120,E,2,10,0.8,23.7,M,-26.9,M,1.8,0000*6B
$GPGSA,A,3,04,28,02,27,17,05,08,09,10,13,,,1.5,0.8,1.2*35
$GPRMC,091356.000,A,1335.3467,N,10049.9120,E,39.87,101.69,021010,,*37
$GPGGA,091357.000,1335.3445,N,10049.9231,E,2,10,0.8,23.7,M,-26.9,M,2.8,0000*6A
$GPGSA,A,3,04,28,02,27,17,05,08,09,10,13,,,1.5,0.8,1.2*35
$GPRMC,091357.000,A,1335.3445,N,10049.9231,E,39.60,101.91,021010,,*3B
$GPGGA,091358.000,1335.3422,N,10049.9341,E,2,10,0.8,23.6,M,-26.9,M,3.8,0000*62
$GPGSA,A,3,04,28,02,27,17,05,08,09,10,13,,,1.5,0.8,1.2*35
$GPGSV,3,1,12,10,56,177,44,04,52,341,44,28,47,142,44,02,43,283,47*7F
$GPGSV,3,2,12,17,39,043,41,05,17,204,39,27,17,273,43,09,13,284,40*79
$GPGSV,3,3,12,08,06,169,37,13,06,104,36,12,00,324,31,42,42,105,38*71
$GPRMC,091358.000,A,1335.3422,N,10049.9341,E,39.53,101.98,021010,,*3A
$GPGGA,091359.000,1335.3399,N,10049.9451,E,2,10,0.8,23.6,M,-26.9,M,0.8,0000*61
$GPGSA,A,3,04,28,02,27,17,05,08,09,10,13,,,1.5,0.8,1.2*35
$GPRMC,091359.000,A,1335.3399,N,10049.9451,E,39.51,102.01,021010,,*3B
$GPGGA,091400.000,1335.3376,N,10049.9561,E,2,10,0.8,23.6,M,-26.9,M,0.8,0000*69
$GPGSA,A,3,04,28,02,27,17,05,08,09,10,13,,,1.5,0.8,1.2*35
$GPRMC,091400.000,A,1335.3376,N,10049.9561,E,39.56,102.08,021010,,*3D
$GPGGA,091401.000,1335.3353,N,10049.9672,E,2,10,0.8,23.6,M,-26.9,M,0.8,0000*6E
$GPGSA,A,3,04,28,02,27,17,05,08,09,10,13,,,1.5,0.8,1.2*35
$GPRMC,091401.000,A,1335.3353,N,10049.9672,E,39.70,101.91,021010,,*3D
$GPGGA,091402.000,1335.3330,N,10049.9783,E,2,10,0.8,23.6,M,-26.9,M,0.8,0000*67
$GPGSA,A,3,04,28,02,27,17,05,08,09,10,13,,,1.5,0.8,1.2*35
$GPRMC,091402.000,A,1335.3330,N,10049.9783,E,39.92,101.92,021010,,*3B
$GPGGA,091403.000,1335.3307,N,10049.9895,E,2,10,0.8,23.5,M,-26.9,M,1.8,0000*68
$GPGSA,A,3,04,28,02,27,17,05,08,09,10,13,,,1.5,0.8,1.2*35
$GPGSV,3,1,12,10,56,177,44,04,52,341,44,28,47,142,45,02,43,283,47*7E
$GPGSV,3,2,12,17,39,043,41,05,17,204,40,27,17,273,43,09,13,284,40*77
$GPGSV,3,3,12,08,06,169,30,13,06,104,36,12,00,324,,42,42,105,38*74
$GPRMC,091403.000,A,1335.3307,N,10049.9895,E,40.00,101.89,021010,,*39
$GPGGA,091404.000,1335.3284,N,10050.0006,E,2,10,0.8,23.5,M,-26.9,M,0.8,0000*67
$GPGSA,A,3,04,28,02,27,17,05,08,09,10,13,,,1.5,0.8,1.2*35
$GPRMC,091404.000,A,1335.3284,N,10050.0006,E,39.87,101.81,021010,,*3E
$GPGGA,091405.000,1335.3262,N,10050.0117,E,2,10,0.8,23.5,M,-26.9,M,0.8,0000*6F
$GPGSA,A,3,04,28,02,27,17,05,08,09,10,13,,,1.5,0.8,1.2*35
$GPRMC,091405.000,A,1335.3262,N,10050.0117,E,39.64,101.83,021010,,*39
$GPGGA,091406.000,1335.3239,N,10050.0227,E,2,10,0.8,23.4,M,-26.9,M,0.8,0000*63
$GPGSA,A,3,04,28,02,27,17,05,08,09,10,13,,,1.5,0.8,1.2*35
$GPRMC,091406.000,A,1335.3239,N,10050.0227,E,39.60,101.94,021010,,*36
$GPGGA,091407.000,1335.3216,N,10050.0338,E,2,10,0.8,23.4,M,-26.9,M,0.8,0000*60
$GPGSA,A,3,04,28,02,27,17,05,08,09,10,13,,,1.5,0.8,1.2*35
$GPRMC,091407.000,A,1335.3216,N,10050.0338,E,39.61,102.39,021010,,*30
$GPGGA,091408.000,1335.3192,N,10050.0448,E,2,10,0.8,23.3,M,-26.9,M,1.8,0000*66
$GPGSA,A,3,04,28,02,27,17,05,08,09,10,13,,,1.5,0.8,1.2*35
$GPGSV,3,1,12,10,56,177,45,04,52,341,45,28,47,142,45,02,43,283,47*7E
$GPGSV,3,2,12,17,39,043,41,05,17,204,40,27,17,273,43,09,13,284,41*76
$GPGSV,3,3,12,08,06,169,36,13,06,104,36,12,00,324,,42,42,105,38*72
$GPRMC,091408.000,A,1335.3192,N,10050.0448,E,39.83,102.67,021010,,*37
$GPGGA,091409.000,1335.3167,N,10050.0560,E,2,10,0.8,23.3,M,-26.9,M,2.8,0000*65
$GPGSA,A,3,04,28,02,27,17,05,08,09,10,13,,,1.5,0.8,1.2*35
$GPRMC,091409.000,A,1335.3167,N,10050.0560,E,40.11,102.72,021010,,*36
$GPGGA,091410.000,1335.3143,N,10050.0672,E,2,10,0.8,23.3,M,-26.9,M,3.8,0000*6A
$GPGSA,A,3,04,28,02,27,17,05,08,09,10,13,,,1.5,0.8,1.2*35
$GPRMC,091410.000,A,1335.3143,N,10050.0672,E,40.33,102.74,021010,,*3E
$GPGGA,091411.000,1335.3118,N,10050.0784,E,2,10,0.8,23.3,M,-26.9,M,0.8,0000*6E
$GPGSA,A,3,04,28,02,27,17,05,08,09,10,13,,,1.5,0.8,1.2*35
$GPRMC,091411.000,A,1335.3118,N,10050.0784,E,40.53,102.61,021010,,*3B
$GPGGA,091412.000,1335.3094,N,10050.0897,E,2,10,0.8,23.4,M,-26.9,M,0.8,0000*62
$GPGSA,A,3,04,28,02,27,17,05,08,09,10,13,,,1.5,0.8,1.2*35
$GPRMC,091412.000,A,1335.3094,N,10050.0897,E,40.68,102.27,021010,,*3A
$GPGGA,091413.000,1335.3070,N,10050.1011,E,2,10,0.8,23.6,M,-26.9,M,0.8,0000*6C
$GPGSA,A,3,04,28,02,27,17,05,08,09,10,13,,,1.5,0.8,1.2*35
$GPGSV,3,1,12,10,56,177,44,04,52,341,44,28,47,142,44,02,43,283,46*7E
$GPGSV,3,2,12,17,39,043,40,05,17,204,39,27,17,273,43,09,13,284,40*78
$GPGSV,3,3,12,08,06,169,36,13,06,104,35,12,00,324,36,42,42,105,37*7B
$GPRMC,091413.000,A,1335.3070,N,10050.1011,E,40.78,101.86,021010,,*3F
$GPGGA,091414.000,1335.3047,N,10050.1124,E,2,10,0.8,23.8,M,-26.9,M,1.8,0000*67
$GPGSA,A,3,04,28,02,27,17,05,08,09,10,13,,,1.5,0.8,1.2*35
$GPRMC,091414.000,A,1335.3047,N,10050.1124,E,40.68,101.61,021010,,*33
$GPGGA,091415.000,1335.3024,N,10050.1238,E,2,10,0.8,24.0,M,-26.9,M,2.8,0000*61
$GPGSA,A,3,04,28,02,27,17,05,08,09,10,13,,,1.5,0.8,1.2*35
$GPRMC,091415.000,A,1335.3024,N,10050.1238,E,40.45,101.51,021010,,*35
$GPGGA,091416.000,1335.3002,N,10050.1350,E,2,10,0.8,24.1,M,-26.9,M,0.8,0000*6A
$GPGSA,A,3,04,28,02,27,17,05,08,09,10,13,,,1.5,0.8,1.2*35
$GPRMC,091416.000,A,1335.3002,N,10050.1350,E,40.25,101.57,021010,,*3D
$GPGGA,091417.000,1335.2979,N,10050.1463,E,2,10,0.8,24.3,M,-26.9,M,0.8,0000*6A
$GPGSA,A,3,04,28,02,27,17,05,08,09,10,13,,,1.5,0.8,1.2*35
$GPRMC,091417.000,A,1335.2979,N,10050.1463,E,40.21,101.84,021010,,*35
$GPGGA,091418.000,1335.2956,N,10050.1575,E,2,10,0.8,24.4,M,-26.9,M,0.8,0000*69
$GPGSA,A,3,04,28,02,27,17,05,08,09,10,13,,,1.5,0.8,1.2*35
$GPGSV,3,1,12,10,56,177,44,04,52,341,44,28,47,143,44,02,43,283,46*7F
$GPGSV,3,2,12,17,39,044,40,05,17,204,39,27,17,273,43,09,13,284,40*7F
$GPGSV,3,3,12,08,06,169,36,13,06,104,35,12,01,324,35,42,42,105,38*76
$GPRMC,091418.000,A,1335.2956,N,10050.1575,E,40.25,102.24,021010,,*3C
$GPGGA,091419.000,1335.2932,N,10050.1687,E,2,10,0.8,24.6,M,-26.9,M,0.8,0000*66
$GPGSA,A,3,04,28,02,27,17,05,08,09,10,13,,,1.5,0.8,1.2*35
$GPRMC,091419.000,A,1335.2932,N,10050.1687,E,40.35,102.40,021010,,*32
$GPGGA,091420.000,1335.2908,N,10050.1800,E,2,10,0.8,24.7,M,-26.9,M,0.8,0000*65
$GPGSA,A,3,04,28,02,27,17,05,08,09,10,13,,,1.5,0.8,1.2*35
$GPRMC,091420.000,A,1335.2908,N,10050.1800,E,40.52,102.41,021010,,*30
$GPGGA,091421.000,1335.2883,N,10050.1913,E,2,10,0.8,24.8,M,-26.9,M,1.8,0000*6B
$GPGSA,A,3,04,28,02,27,17,05,08,09,10,13,,,1.5,0.8,1.2*35
$GPRMC,091421.000,A,1335.2883,N,10050.1913,E,40.77,102.42,021010,,*34
$GPGGA,091422.000,1335.2859,N,10050.2027,E,2,10,0.8,24.9,M,-26.9,M,2.8,0000*60
$GPGSA,A,3,04,28,02,27,17,05,08,09,10,13,,,1.5,0.8,1.2*35
$GPRMC,091422.000,A,1335.2859,N,10050.2027,E,41.11,102.50,021010,,*3F
$GPGGA,091423.000,1335.2834,N,10050.2142,E,2,10,0.8,25.0,M,-26.9,M,0.8,0000*62
$GPGSA,A,3,04,28,02,27,17,05,08,09,10,13,,,1.5,0.8,1.2*35
$GPGSV,3,1,12,10,56,177,44,04,52,341,44,28,47,143,44,02,43,283,46*7F
$GPGSV,3,2,12,17,39,044,40,05,17,204,39,27,17,273,42,09,13,284,40*7E
$GPGSV,3,3,12,08,06,169,36,13,06,104,35,12,01,324,35,42,42,105,39*77
$GPRMC,091423.000,A,1335.2834,N,10050.2142,E,41.48,102.56,021010,,*3D
$GPGGA,091424.000,1335.2808,N,10050.2258,E,2,10,0.8,25.1,M,-26.9,M,0.8,0000*63
$GPGSA,A,3,04,28,02,27,17,05,08,09,10,13,,,1.5,0.8,1.2*35
$GPRMC,091424.000,A,1335.2808,N,10050.2258,E,41.81,102.50,021010,,*3E
$GPGGA,091425.000,1335.2783,N,10050.2375,E,2,10,0.8,25.2,M,-26.9,M,0.8,0000*63
$GPGSA,A,3,04,28,02,27,17,05,08,09,10,13,,,1.5,0.8,1.2*35
$GPRMC,091425.000,A,1335.2783,N,10050.2375,E,42.23,102.32,021010,,*32
$GPGGA,091426.000,1335.2758,N,10050.2494,E,2,10,0.8,25.2,M,-26.9,M,1.8,0000*6F
$GPGSA,A,3,04,28,02,27,17,05,08,09,10,13,,,1.5,0.8,1.2*35
$GPRMC,091426.000,A,1335.2758,N,10050.2494,E,42.57,102.31,021010,,*3F
$GPGGA,091427.000,1335.2733,N,10050.2613,E,2,10,0.8,25.2,M,-26.9,M,2.8,0000*6D
$GPGSA,A,3,04,28,02,27,17,05,08,09,10,13,,,1.5,0.8,1.2*35
$GPRMC,091427.000,A,1335.2733,N,10050.2613,E,42.98,102.30,021010,,*3C
$GPGGA,091428.000,1335.2707,N,10050.2734,E,2,10,0.8,25.2,M,-26.9,M,3.8,0000*60
$GPGSA,A,3,04,28,02,27,17,05,08,09,10,13,,,1.5,0.8,1.2*35
$GPGSV,3,1,12,10,56,177,44,04,52,341,44,28,47,143,44,02,43,283,46*7F
$GPGSV,3,2,12,17,39,044,40,05,17,204,39,27,17,273,42,09,13,284,40*7E
$GPGSV,3,3,12,08,06,169,36,13,06,104,35,12,01,324,35,42,42,105,38*76
$GPRMC,091428.000,A,1335.2707,N,10050.2734,E,43.49,102.32,021010,,*3F
$GPGGA,091429.000,1335.2681,N,10050.2856,E,2,10,0.8,25.2,M,-26.9,M,0.8,0000*66
$GPGSA,A,3,04,28,02,27,17,05,08,09,10,13,,,1.5,0.8,1.2*35
$GPRMC,091429.000,A,1335.2681,N,10050.2856,E,44.03,102.39,021010,,*38
$GPGGA,091430.000,1335.2655,N,10050.2980,E,2,10,0.8,25.0,M,-26.9,M,0.8,0000*6F
$GPGSA,A,3,04,28,02,27,17,05,08,09,10,13,,,1.5,0.8,1.2*35
$GPRMC,091430.000,A,1335.2655,N,10050.2980,E,44.61,102.32,021010,,*3C
$GPGGA,091431.000,1335.2628,N,10050.3105,E,2,10,0.8,24.9,M,-26.9,M,0.8,0000*68
$GPGSA,A,3,04,28,02,27,17,05,08,09,10,13,,,1.5,0.8,1.2*35
$GPRMC,091431.000,A,1335.2628,N,10050.3105,E,45.20,102.33,021010,,*36
$GPGGA,091432.000,1335.2601,N,10050.3232,E,2,10,0.8,24.7,M,-26.9,M,1.8,0000*68
$GPGSA,A,3,04,28,02,27,17,05,08,09,10,13,,,1.5,0.8,1.2*35
$GPRMC,091432.000,A,1335.2601,N,10050.3232,E,45.74,102.23,021010,,*39
$GPGGA,091433.000,1335.2574,N,10050.3360,E,2,10,0.8,24.5,M,-26.9,M,0.8,0000*6D
$GPGSA,A,3,04,28,02,27,17,05,08,09,10,13,,,1.5,0.8,1.2*35
$GPGSV,3,1,12,10,56,177,44,04,52,341,45,28,47,143,44,02,43,283,46*7E
$GPGSV,3,2,12,17,39,044,41,05,17,204,39,27,17,273,43,09,13,284,40*7E
$GPGSV,3,3,12,08,06,169,35,13,06,104,40,12,01,324,35,42,42,105,38*77
$GPRMC,091433.000,A,1335.2574,N,10050.3360,E,46.26,102.13,021010,,*38
$GPGGA,091434.000,1335.2547,N,10050.3490,E,2,10,0.8,24.2,M,-26.9,M,0.8,0000*65
$GPGSA,A,3,04,28,02,27,17,05,08,09,10,13,,,1.5,0.8,1.2*35
$GPRMC,091434.000,A,1335.2547,N,10050.3490,E,46.79,102.04,021010,,*3B
$GPGGA,091435.000,1335.2519,N,10050.3622,E,2,10,0.8,24.0,M,-26.9,M,0.8,0000*66
$GPGSA,A,3,04,28,02,27,17,05,08,09,10,13,,,1.5,0.8,1.2*35
$GPRMC,091435.000,A,1335.2519,N,10050.3622,E,47.22,102.02,021010,,*33
$GPGGA,091436.000,1335.2492,N,10050.3754,E,2,10,0.8,23.8,M,-26.9,M,0.8,0000*68
$GPGSA,A,3,04,28,02,27,17,05,08,09,10,13,,,1.5,0.8,1.2*35
$GPRMC,091436.000,A,1335.2492,N,10050.3754,E,47.49,101.93,021010,,*34
$GPGGA,091437.000,1335.2464,N,10050.3887,E,2,10,0.8,23.6,M,-26.9,M,0.8,0000*6F
$GPGSA,A,3,04,28,02,27,17,05,08,09,10,13,,,1.5,0.8,1.2*35
$GPRMC,091437.000,A,1335.2464,N,10050.3887,E,47.62,101.94,021010,,*33
$GPGGA,091438.000,1335.2437,N,10050.4020,E,2,10,0.8,23.4,M,-26.9,M,1.8,0000*67
$GPGSA,A,3,04,28,02,27,17,05,08,09,10,13,,,1.5,0.8,1.2*35
$GPGSV,3,1,12,10,56,177,45,04,52,341,45,28,47,143,44,02,43,283,47*7E
$GPGSV,3,2,12,17,39,044,41,05,17,204,39,27,17,273,43,09,13,284,41*7F
$GPGSV,3,3,12,08,06,169,36,13,06,104,40,12,01,324,36,42,42,105,38*77
$GPRMC,091438.000,A,1335.2437,N,10050.4020,E,47.74,102.07,021010,,*36
$GPGGA,091439.000,1335.2409,N,10050.4154,E,2,10,0.8,23.2,M,-26.9,M,2.8,0000*6C
$GPGSA,A,3,04,28,02,27,17,05,08,09,10,13,,,1.5,0.8,1.2*35
$GPRMC,091439.000,A,1335.2409,N,10050.4154,E,47.83,102.25,021010,,*30
$GPGGA,091440.000,1335.2380,N,10050.4288,E,2,10,0.8,23.0,M,-26.9,M,0.8,0000*66
$GPGSA,A,3,04,28,02,27,17,05,08,09,10,13,,,1.5,0.8,1.2*35
$GPRMC,091440.000,A,1335.2380,N,10050.4288,E,47.87,102.26,021010,,*3D
$GPGGA,091441.000,1335.2352,N,10050.4421,E,2,10,0.8,22.9,M,-26.9,M,0.8,0000*65
$GPGSA,A,3,04,28,02,27,17,05,08,09,10,13,,,1.5,0.8,1.2*35
$GPRMC,091441.000,A,1335.2352,N,10050.4421,E,47.90,102.28,021010,,*3E
$GPGGA,091442.000,1335.2324,N,10050.4555,E,2,10,0.8,22.7,M,-26.9,M,0.8,0000*6B
$GPGSA,A,3,04,28,02,27,17,05,08,09,10,13,,,1.5,0.8,1.2*35
$GPRMC,091442.000,A,1335.2324,N,10050.4555,E,47.86,102.30,021010,,*30
$GPGGA,091443.000,1335.2295,N,10050.4688,E,2,10,0.8,22.6,M,-26.9,M,0.8,0000*63
$GPGSA,A,3,04,28,02,27,17,05,08,09,10,13,,,1.5,0.8,1.2*35
$GPGSV,3,1,12,10,56,177,45,04,52,341,45,28,47,143,44,02,43,283,47*7E
$GPGSV,3,2,12,17,39,044,41,05,17,204,40,27,17,273,43,09,13,284,41*71
$GPGSV,3,3,12,08,06,169,37,13,06,104,35,12,01,324,36,42,42,105,38*74
$GPRMC,091443.000,A,1335.2295,N,10050.4688,E,47.85,102.30,021010,,*3A
$GPGGA,091444.000,1335.2267,N,10050.4822,E,2,10,0.8,22.6,M,-26.9,M,1.8,0000*66
$GPGSA,A,3,04,28,02,27,17,05,08,09,10,13,,,1.5,0.8,1.2*35
$GPRMC,091444.000,A,1335.2267,N,10050.4822,E,47.65,102.34,021010,,*34
$GPGGA,091445.000,1335.2238,N,10050.4954,E,2,10,0.8,22.5,M,-26.9,M,2.8,0000*6D
$GPGSA,A,3,04,28,02,27,17,05,08,09,10,13,,,1.5,0.8,1.2*35
$GPRMC,091445.000,A,1335.2238,N,10050.4954,E,47.25,102.40,021010,,*38
$GPGGA,091446.000,1335.2210,N,10050.5085,E,2,10,0.8,22.5,M,-26.9,M,3.8,0000*61
$GPGSA,A,3,04,28,02,27,17,05,08,09,10,13,,,1.5,0.8,1.2*35
$GPRMC,091446.000,A,1335.2210,N,10050.5085,E,46.63,102.47,021010,,*31
$GPGGA,091447.000,1335.2182,N,10050.5214,E,2,10,0.8,22.5,M,-26.9,M,0.8,0000*61
$GPGSA,A,3,04,28,02,27,17,05,08,09,10,13,,,1.5,0.8,1.2*35
$GPRMC,091447.000,A,1335.2182,N,10050.5214,E,45.87,102.63,021010,,*3D
$GPGGA,091448.000,1335.2154,N,10050.5340,E,2,10,0.8,22.5,M,-26.9,M,0.8,0000*65
$GPGSA,A,3,04,28,02,27,17,05,08,09,10,13,,,1.5,0.8,1.2*35
$GPGSV,3,1,12,10,57,177,45,04,51,341,45,28,47,143,44,02,43,283,47*7C
$GPGSV,3,2,12,17,39,044,41,05,17,204,39,27,17,272,43,09,13,283,40*78
$GPGSV,3,3,12,08,06,169,36,13,06,104,35,12,01,324,36,42,42,105,39*74
$GPRMC,091448.000,A,1335.2154,N,10050.5340,E,44.79,102.63,021010,,*39
$GPGGA,091449.000,1335.2128,N,10050.5463,E,2,10,0.8,22.5,M,-26.9,M,0.8,0000*69
$GPGSA,A,3,04,28,02,27,17,05,08,09,10,13,,,1.5,0.8,1.2*35
$GPRMC,091449.000,A,1335.2128,N,10050.5463,E,43.85,102.41,021010,,*31
$GPGGA,091450.000,1335.2102,N,10050.5585,E,2,10,0.8,22.4,M,-26.9,M,0.8,0000*61
$GPGSA,A,3,04,28,02,27,17,05,08,09,10,13,,,1.5,0.8,1.2*35
$GPRMC,091450.000,A,1335.2102,N,10050.5585,E,43.31,102.34,021010,,*35
$GPGGA,091451.000,1335.2076,N,10050.5705,E,2,10,0.8,22.4,M,-26.9,M,1.8,0000*69
$GPGSA,A,3,04,28,02,27,17,05,08,09,10,13,,,1.5,0.8,1.2*35
$GPRMC,091451.000,A,1335.2076,N,10050.5705,E,42.82,102.24,021010,,*34
$GPGGA,091452.000,1335.2051,N,10050.5824,E,2,10,0.8,22.4,M,-26.9,M,2.8,0000*60
$GPGSA,A,3,04,28,02,27,17,05,08,09,10,13,,,1.5,0.8,1.2*35
$GPRMC,091452.000,A,1335.2051,N,10050.5824,E,42.52,102.22,021010,,*35
$GPGGA,091453.000,1335.2026,N,10050.5942,E,2,10,0.8,22.4,M,-26.9,M,0.8,0000*62
$GPGSA,A,3,04,28,02,27,17,05,08,09,10,13,,,1.5,0.8,1.2*35
$GPGSV,3,1,12,10,57,177,44,04,51,341,45,28,47,143,44,02,43,283,46*7C
$GPGSV,3,2,12,17,39,044,41,05,17,204,40,27,17,272,43,09,13,283,41*77
$GPGSV,3,3,12,08,06,169,36,13,06,104,35,12,01,324,36,42,42,105,38*75
$GPRMC,091453.000,A,1335.2026,N,10050.5942,E,42.42,102.41,021010,,*31
$GPGGA,091454.000,1335.2000,N,10050.6060,E,2,10,0.8,22.4,M,-26.9,M,0.8,0000*6B
$GPGSA,A,3,04,28,02,27,17,05,08,09,10,13,,,1.5,0.8,1.2*35
$GPRMC,091454.000,A,1335.2000,N,10050.6060,E,42.51,102.57,021010,,*3D
$GPGGA,091455.000,1335.1974,N,10050.6179,E,2,10,0.8,22.3,M,-26.9,M,0.8,0000*6D
$GPGSA,A,3,04,28,02,27,17,05,08,09,10,13,,,1.5,0.8,1.2*35
$GPRMC,091455.000,A,1335.1974,N,10050.6179,E,42.52,102.51,021010,,*39
$GPGGA,091456.000,1335.1949,N,10050.6297,E,2,10,0.8,22.3,M,-26.9,M,1.8,0000*62
$GPGSA,A,3,04,28,02,27,17,05,08,09,10,13,,,1.5,0.8,1.2*35
$GPRMC,091456.000,A,1335.1949,N,10050.6297,E,42.50,102.25,021010,,*36
$GPGGA,091457.000,1335.1924,N,10050.6415,E,2,10,0.8,22.2,M,-26.9,M,2.8,0000*66
$GPGSA,A,3,04,28,02,27,17,05,08,09,10,13,,,1.5,0.8,1.2*35
$GPRMC,091457.000,A,1335.1924,N,10050.6415,E,42.27,102.24,021010,,*31
$GPGGA,091458.000,1335.1899,N,10050.6532,E,2,10,0.8,22.2,M,-26.9,M,0.8,0000*68
$GPGSA,A,3,04,28,02,27,17,05,08,09,10,13,,,1.5,0.8,1.2*35
$GPGSV,3,1,12,10,57,177,44,04,51,341,44,28,47,143,44,02,43,283,46*7D
$GPGSV,3,2,12,17,39,044,41,05,17,204,39,27,17,272,42,09,13,283,40*79
$GPGSV,3,3,12,08,06,169,36,13,06,104,36,12,01,324,36,42,42,105,38*76
$GPRMC,091458.000,A,1335.1899,N,10050.6532,E,41.52,102.61,021010,,*3D
$GPGGA,091459.000,1335.1873,N,10050.6647,E,2,10,0.8,22.1,M,-26.9,M,0.8,0000*6F
$GPGSA,A,3,04,28,02,27,17,05,08,09,10,13,,,1.5,0.8,1.2*35
$GPRMC,091459.000,A,1335.1873,N,10050.6647,E,41.08,102.81,021010,,*38
$GPGGA,091500.000,1335.1848,N,10050.6762,E,2,10,0.8,22.1,M,-26.9,M,0.8,0000*6C
$GPGSA,A,3,04,28,02,27,17,05,08,09,10,13,,,1.5,0.8,1.2*35
$GPRMC,091500.000,A,1335.1848,N,10050.6762,E,41.27,102.52,021010,,*38
$GPGGA,091501.000,1335.1824,N,10050.6877,E,2,10,0.8,22.1,M,-26.9,M,0.8,0000*6C
$GPGSA,A,3,04,28,02,27,17,05,08,09,10,13,,,1.5,0.8,1.2*35
$GPRMC,091501.000,A,1335.1824,N,10050.6877,E,41.49,102.10,021010,,*36
$GPGGA,091502.000,1335.1800,N,10050.6993,E,2,10,0.8,22.2,M,-26.9,M,1.8,0000*60
$GPGSA,A,3,04,28,02,27,17,05,08,09,10,13,,,1.5,0.8,1.2*35
$GPRMC,091502.000,A,1335.1800,N,10050.6993,E,41.66,102.01,021010,,*35
$GPGGA,091503.000,1335.1776,N,10050.7108,E,2,10,0.8,22.2,M,-26.9,M,2.8,0000*67
$GPGSA,A,3,04,28,02,27,17,05,08,09,10,13,,,1.5,0.8,1.2*35
$GPGSV,3,1,12,10,57,177,44,04,51,341,44,28,47,143,44,02,43,283,46*7D
$GPGSV,3,2,12,17,39,044,41,05,17,204,39,27,17,272,43,09,13,283,40*78
$GPGSV,3,3,12,08,06,169,36,13,06,104,35,12,01,324,37,42,42,105,38*74
$GPRMC,091503.000,A,1335.1776,N,10050.7108,E,41.21,101.83,021010,,*3B
$GPGGA,091504.000,1335.1753,N,10050.7222,E,2,10,0.8,22.2,M,-26.9,M,3.8,0000*6D
$GPGSA,A,3,04,28,02,27,17,05,08,09,10,13,,,1.5,0.8,1.2*35
$GPRMC,091504.000,A,1335.1753,N,10050.7222,E,40.04,101.62,021010,,*39
$GPGGA,091505.000,1335.1731,N,10050.7333,E,2,10,0.8,22.2,M,-26.9,M,0.8,0000*6A
$GPGSA,A,3,04,28,02,27,17,05,08,09,10,13,,,1.5,0.8,1.2*35
$GPRMC,091505.000,A,1335.1731,N,10050.7333,E,39.43,101.55,021010,,*34
$GPGGA,091506.000,1335.1708,N,10050.7443,E,2,10,0.8,22.2,M,-26.9,M,0.8,0000*63
$GPGSA,A,3,04,28,02,27,17,05,08,09,10,13,,,1.5,0.8,1.2*35
$GPRMC,091506.000,A,1335.1708,N,10050.7443,E,39.56,101.91,021010,,*31
$GPGGA,091507.000,1335.1685,N,10050.7554,E,2,10,0.8,22.1,M,-26.9,M,0.8,0000*62
$GPGSA,A,3,04,28,02,27,17,05,08,09,10,13,,,1.5,0.8,1.2*35
$GPRMC,091507.000,A,1335.1685,N,10050.7554,E,39.84,102.24,021010,,*31
$GPGGA,091508.000,1335.1661,N,10050.7665,E,2,10,0.8,22.1,M,-26.9,M,0.8,0000*66
$GPGSA,A,3,04,28,02,27,17,05,08,09,10,13,,,1.5,0.8,1.2*35
$GPGSV,3,1,12,10,57,177,44,04,51,341,44,28,47,143,43,02,43,283,46*7A
$GPGSV,3,2,12,17,39,044,41,05,17,204,39,27,17,272,43,09,13,283,40*78
$GPGSV,3,3,12,08,06,169,36,13,06,104,35,12,01,324,36,42,42,105,38*75
$GPRMC,091508.000,A,1335.1661,N,10050.7665,E,40.24,102.32,021010,,*36
$GPGGA,091509.000,1335.1637,N,10050.7778,E,2,10,0.8,22.1,M,-26.9,M,0.8,0000*69
$GPGSA,A,3,04,28,02,27,17,05,08,09,10,13,,,1.5,0.8,1.2*35
$GPRMC,091509.000,A,1335.1637,N,10050.7778,E,40.57,102.39,021010,,*36
$GPGGA,091510.000,1335.1613,N,10050.7891,E,2,10,0.8,22.0,M,-26.9,M,1.8,0000*6F
$GPGSA,A,3,04,28,02,27,17,05,08,09,10,13,,,1.5,0.8,1.2*35
$GPRMC,091510.000,A,1335.1613,N,10050.7891,E,40.53,102.17,021010,,*38
$GPGGA,091511.000,1335.1590,N,10050.8002,E,2,10,0.8,22.0,M,-26.9,M,0.8,0000*6A
$GPGSA,A,3,04,28,02,27,17,05,08,09,10,13,,,1.5,0.8,1.2*35
$GPRMC,091511.000,A,1335.1590,N,10050.8002,E,39.64,102.04,021010,,*34
$GPGGA,091512.000,1335.1567,N,10050.8112,E,2,10,0.8,21.9,M,-26.9,M,0.8,0000*6B
$GPGSA,A,3,04,28,02,27,17,05,08,09,10,13,,,1.5,0.8,1.2*35
$GPRMC,091512.000,A,1335.1567,N,10050.8112,E,39.10,102.10,021010,,*39
$GPGGA,091513.000,1335.1544,N,10050.8221,E,2,10,0.8,21.9,M,-26.9,M,0.8,0000*68
$GPGSA,A,3,04,28,02,27,17,05,08,09,10,13,,,1.5,0.8,1.2*35
$GPGSV,3,1,12,10,57,177,43,04,51,341,43,28,47,143,43,02,43,283,45*79
$GPGSV,3,2,12,17,39,044,39,05,17,204,39,27,17,272,42,09,13,283,40*76
$GPGSV,3,3,12,08,06,169,36,13,06,104,35,12,01,324,37,42,42,105,37*7B
$GPRMC,091513.000,A,1335.1544,N,10050.8221,E,39.08,102.27,021010,,*37
$GPGGA,091514.000,1335.1520,N,10050.8330,E,2,10,0.8,21.8,M,-26.9,M,0.8,0000*6D
$GPGSA,A,3,04,28,02,27,17,05,08,09,10,13,,,1.5,0.8,1.2*35
$GPRMC,091514.000,A,1335.1520,N,10050.8330,E,39.31,102.38,021010,,*37
$GPGGA,091515.000,1335.1497,N,10050.8440,E,2,10,0.8,21.8,M,-26.9,M,1.8,0000*60
$GPGSA,A,3,04,28,02,27,17,05,08,09,10,13,,,1.5,0.8,1.2*35
$GPRMC,091515.000,A,1335.1497,N,10050.8440,E,39.57,102.14,021010,,*35
$GPGGA,091516.000,1335.1474,N,10050.8551,E,2,10,0.8,21.7,M,-26.9,M,2.8,0000*63
$GPGSA,A,3,04,28,02,27,17,05,08,09,10,13,,,1.5,0.8,1.2*35
$GPRMC,091516.000,A,1335.1474,N,10050.8551,E,39.79,102.02,021010,,*31
$GPGGA,091517.000,1335.1451,N,10050.8662,E,2,10,0.8,21.6,M,-26.9,M,0.8,0000*65
$GPGSA,A,3,04,28,02,27,17,05,08,09,10,13,,,1.5,0.8,1.2*35
$GPRMC,091517.000,A,1335.1451,N,10050.8662,E,39.80,101.99,021010,,*33
$GPGGA,091518.000,1335.1428,N,10050.8773,E,2,10,0.8,21.5,M,-26.9,M,0.8,0000*66
$GPGSA,A,3,04,28,02,27,17,05,08,09,10,13,,,1.5,0.8,1.2*35
$GPGSV,3,1,12,10,57,177,42,04,51,342,42,28,47,143,42,02,43,284,44*7D
$GPGSV,3,2,12,17,39,044,39,05,18,204,38,27,17,272,41,09,13,283,39*75
$GPGSV,3,3,12,08,06,168,35,13,06,103,35,12,01,324,37,42,42,105,36*7F
$GPRMC,091518.000,A,1335.1428,N,10050.8773,E,39.80,101.91,021010,,*3B
$GPGGA,091519.000,1335.1405,N,10050.8884,E,2,10,0.8,21.5,M,-26.9,M,0.8,0000*6F
$GPGSA,A,3,04,28,02,27,17,05,08,09,10,13,,,1.5,0.8,1.2*35
$GPRMC,091519.000,A,1335.1405,N,10050.8884,E,40.10,102.20,021010,,*3C
$GPGGA,091520.000,1335.1381,N,10050.8996,E,2,10,0.8,21.4,M,-26.9,M,1.8,0000*6C
$GPGSA,A,3,04,28,02,27,17,05,08,09,10,13,,,1.5,0.8,1.2*35
$GPRMC,091520.000,A,1335.1381,N,10050.8996,E,40.51,102.49,021010,,*35
$GPGGA,091521.000,1335.1356,N,10050.9110,E,2,10,0.8,21.3,M,-26.9,M,0.8,0000*66
$GPGSA,A,3,04,28,02,27,17,05,08,09,10,13,,,1.5,0.8,1.2*35
$GPRMC,091521.000,A,1335.1356,N,10050.9110,E,40.86,102.39,021010,,*34
$GPGGA,091522.000,1335.1332,N,10050.9224,E,2,10,0.8,21.3,M,-26.9,M,1.8,0000*62
$GPGSA,A,3,04,28,02,27,17,05,08,09,10,13,,,1.5,0.8,1.2*35
$GPRMC,091522.000,A,1335.1332,N,10050.9224,E,41.19,102.16,021010,,*3B
$GPGGA,091523.000,1335.1307,N,10050.9339,E,2,10,0.8,21.2,M,-26.9,M,0.8,0000*68
$GPGSA,A,3,04,28,02,27,17,05,08,09,10,13,,,1.5,0.8,1.2*35
$GPGSV,3,1,12,10,57,177,42,04,51,342,43,28,47,143,42,02,43,284,44*7C
$GPGSV,3,2,12,17,39,044,38,05,18,204,38,27,17,272,41,09,13,283,39*74
$GPGSV,3,3,12,08,06,168,35,13,06,103,35,12,01,324,22,42,42,105,37*7A
$GPRMC,091523.000,A,1335.1307,N,10050.9339,E,41.57,102.22,021010,,*3C
$GPGGA,091524.000,1335.1283,N,10050.9456,E,2,10,0.8,21.2,M,-26.9,M,0.8,0000*6C
$GPGSA,A,3,04,28,02,27,17,05,08,09,10,13,,,1.5,0.8,1.2*35
$GPRMC,091524.000,A,1335.1283,N,10050.9456,E,41.90,102.39,021010,,*39
$GPGGA,091525.000,1335.1257,N,10050.9573,E,2,10,0.8,21.1,M,-26.9,M,0.8,0000*61
$GPGSA,A,3,04,28,02,27,17,05,08,09,10,13,,,1.5,0.8,1.2*35
$GPRMC,091525.000,A,1335.1257,N,10050.9573,E,42.13,102.40,021010,,*31
$GPGGA,091526.000,1335.1232,N,10050.9691,E,2,10,0.8,21.0,M,-26.9,M,0.8,0000*6F
$GPGSA,A,3,04,28,02,27,17,05,08,09,10,13,,,1.5,0.8,1.2*35
$GPRMC,091526.000,A,1335.1232,N,10050.9691,E,42.32,102.33,021010,,*39
$GPGGA,091527.000,1335.1207,N,10050.9809,E,2,10,0.8,20.9,M,-26.9,M,1.8,0000*6E
$GPGSA,A,3,04,28,02,27,17,05,08,09,10,13,,,1.5,0.8,1.2*35
$GPRMC,091527.000,A,1335.1207,N,10050.9809,E,42.56,102.23,021010,,*32
$GPGGA,091528.000,1335.1182,N,10050.9928,E,2,10,0.8,20.8,M,-26.9,M,2.8,0000*6F
$GPGSA,A,3,04,28,02,27,17,05,08,09,10,13,,,1.5,0.8,1.2*35
$GPGSV,3,1,12,10,57,177,42,04,51,342,42,28,47,143,41,02,43,284,44*7E
$GPGSV,3,2,12,17,39,044,38,05,18,204,37,27,17,272,41,09,13,283,38*7A
$GPGSV,3,3,12,08,06,168,35,13,06,103,34,12,01,324,32,42,42,105,36*7B
$GPRMC,091528.000,A,1335.1182,N,10050.9928,E,42.97,102.25,021010,,*3A
$GPGGA,091529.000,1335.1156,N,10051.0049,E,2,10,0.8,20.7,M,-26.9,M,0.8,0000*6C
$GPGSA,A,3,04,28,02,27,17,05,08,09,10,13,,,1.5,0.8,1.2*35
$GPRMC,091529.000,A,1335.1156,N,10051.0049,E,43.31,102.26,021010,,*3A
$GPGGA,091530.000,1335.1130,N,10051.0170,E,2,10,0.8,20.6,M,-26.9,M,0.8,0000*6E
$GPGSA,A,3,04,28,02,27,17,05,08,09,10,13,,,1.5,0.8,1.2*35
$GPRMC,091530.000,A,1335.1130,N,10051.0170,E,43.57,102.18,021010,,*34
$GPGGA,091531.000,1335.1105,N,10051.0291,E,2,10,0.8,20.6,M,-26.9,M,0.8,0000*65
$GPGSA,A,3,04,28,02,27,17,05,08,09,10,13,,,1.5,0.8,1.2*35
$GPRMC,091531.000,A,1335.1105,N,10051.0291,E,43.67,102.23,021010,,*34
$GPGGA,091532.000,1335.1079,N,10051.0413,E,2,10,0.8,20.5,M,-26.9,M,1.8,0000*62
$GPGSA,A,3,04,28,02,27,17,05,08,09,10,13,,,1.5,0.8,1.2*35
$GPRMC,091532.000,A,1335.1079,N,10051.0413,E,43.64,102.28,021010,,*39
$GPGGA,091533.000,1335.1053,N,10051.0535,E,2,10,0.8,20.5,M,-26.9,M,2.8,0000*6D
$GPGSA,A,3,04,28,02,27,17,05,08,09,10,13,,,1.5,0.8,1.2*35
$GPGSV,3,1,12,10,57,177,42,04,51,342,42,28,47,143,41,02,43,284,44*7E
$GPGSV,3,2,12,17,39,044,37,05,18,204,37,27,17,272,40,09,13,283,38*74
$GPGSV,3,3,12,08,06,168,34,13,06,103,34,12,01,324,35,42,42,105,36*7D
$GPRMC,091533.000,A,1335.1053,N,10051.0535,E,43.73,102.63,021010,,*3C
$GPGGA,091534.000,1335.1026,N,10051.0656,E,2,10,0.8,20.4,M,-26.9,M,3.8,0000*6E
$GPGSA,A,3,04,28,02,27,17,05,08,09,10,13,,,1.5,0.8,1.2*35
$GPRMC,091534.000,A,1335.1026,N,10051.0656,E,43.61,102.58,021010,,*34
$GPGGA,091535.000,1335.1000,N,10051.0777,E,2,10,0.8,20.4,M,-26.9,M,0.8,0000*6A
$GPGSA,A,3,04,28,02,27,17,05,08,09,10,13,,,1.5,0.8,1.2*35
$GPRMC,091535.000,A,1335.1000,N,10051.0777,E,43.22,102.22,021010,,*39
$GPGGA,091536.000,1335.0975,N,10051.0898,E,2,10,0.8,20.3,M,-26.9,M,0.8,0000*6A
$GPGSA,A,3,04,28,02,27,17,05,08,09,10,13,,,1.5,0.8,1.2*35
$GPRMC,091536.000,A,1335.0975,N,10051.0898,E,42.88,101.97,021010,,*32
$GPGGA,091537.000,1335.0950,N,10051.1017,E,2,10,0.8,20.3,M,-26.9,M,0.8,0000*62
$GPGSA,A,3,04,28,02,27,17,05,08,09,10,13,,,1.5,0.8,1.2*35
$GPRMC,091537.000,A,1335.0950,N,10051.1017,E,42.70,101.82,021010,,*39
$GPGGA,091538.000,1335.0926,N,10051.1136,E,2,10,0.8,20.2,M,-26.9,M,0.8,0000*6F
$GPGSA,A,3,04,28,02,27,17,05,08,09,10,13,,,1.5,0.8,1.2*35
$GPGSV,3,1,12,10,57,177,42,04,51,342,42,28,47,143,41,02,43,284,44*7E
$GPGSV,3,2,12,17,39,044,38,05,18,204,37,27,17,272,40,09,13,283,38*7B
$GPGSV,3,3,12,08,06,168,34,13,06,103,34,12,01,324,35,42,42,105,36*7D
$GPRMC,091538.000,A,1335.0926,N,10051.1136,E,42.42,101.97,021010,,*30
$GPGGA,091539.000,1335.0901,N,10051.1254,E,2,10,0.8,20.1,M,-26.9,M,1.8,0000*6E
$GPGSA,A,3,04,28,02,27,17,05,08,09,10,13,,,1.5,0.8,1.2*35
$GPRMC,091539.000,A,1335.0901,N,10051.1254,E,42.09,102.08,021010,,*39
$GPGGA,091540.000,1335.0876,N,10051.1370,E,2,10,0.8,20.1,M,-26.9,M,2.8,0000*65
$GPGSA,A,3,04,28,02,27,17,05,08,09,10,13,,,1.5,0.8,1.2*35
$GPRMC,091540.000,A,1335.0876,N,10051.1370,E,41.70,102.36,021010,,*31
$GPGGA,091541.000,1335.0851,N,10051.1486,E,2,10,0.8,20.0,M,-26.9,M,0.8,0000*6C
$GPGSA,A,3,04,28,02,27,17,05,08,09,10,13,,,1.5,0.8,1.2*35
$GPRMC,091541.000,A,1335.0851,N,10051.1486,E,41.28,102.53,021010,,*35
$GPGGA,091542.000,1335.0826,N,10051.1601,E,2,10,0.8,19.9,M,-26.9,M,0.8,0000*61
$GPGSA,A,3,04,28,02,27,17,05,08,09,10,13,,,1.5,0.8,1.2*35
$GPRMC,091542.000,A,1335.0826,N,10051.1601,E,41.29,102.29,021010,,*37
$GPGGA,091543.000,1335.0802,N,10051.1716,E,2,10,0.8,19.9,M,-26.9,M,0.8,0000*61
$GPGSA,A,3,04,28,02,27,17,05,08,09,10,13,,,1.5,0.8,1.2*35
$GPGSV,3,1,12,10,57,177,41,04,51,342,42,28,47,143,40,02,43,284,43*7B
$GPGSV,3,2,12,17,39,044,37,05,18,204,37,27,17,272,40,09,13,283,38*74
$GPGSV,3,3,12,08,06,168,34,13,06,103,33,12,01,324,35,42,42,105,35*79
$GPRMC,091543.000,A,1335.0802,N,10051.1716,E,41.31,102.30,021010,,*36
$GPGGA,091544.000,1335.0777,N,10051.1831,E,2,10,0.8,19.9,M,-26.9,M,1.8,0000*60
$GPGSA,A,3,04,28,02,27,17,05,08,09,10,13,,,1.5,0.8,1.2*35
$GPRMC,091544.000,A,1335.0777,N,10051.1831,E,41.31,102.32,021010,,*34
$GPGGA,091545.000,1335.0753,N,10051.1946,E,2,10,0.8,20.0,M,-26.9,M,2.8,0000*66
$GPGSA,A,3,04,28,02,27,17,05,08,09,10,13,,,1.5,0.8,1.2*35
$GPRMC,091545.000,A,1335.0753,N,10051.1946,E,41.42,102.06,021010,,*31
$GPGGA,091546.000,1335.0729,N,10051.2062,E,2,10,0.8,20.0,M,-26.9,M,0.8,0000*66
$GPGSA,A,3,04,28,02,27,17,05,08,09,10,13,,,1.5,0.8,1.2*35
$GPRMC,091546.000,A,1335.0729,N,10051.2062,E,41.55,101.90,021010,,*39
$GPGGA,091547.000,1335.0705,N,10051.2178,E,2,10,0.8,20.1,M,-26.9,M,0.8,0000*62
$GPGSA,A,3,04,28,02,27,17,05,08,09,10,13,,,1.5,0.8,1.2*35
$GPRMC,091547.000,A,1335.0705,N,10051.2178,E,41.58,102.44,021010,,*3B
$GPGGA,091548.000,1335.0679,N,10051.2294,E,2,09,0.9,20.1,M,-26.9,M,0.8,0000*6F
$GPGSA,A,3,04,28,02,27,17,05,09,10,13,,,,1.6,0.9,1.3*3E
$GPGSV,3,1,12,10,57,177,40,04,51,342,41,28,46,143,39,02,43,284,42*77
$GPGSV,3,2,12,17,39,045,37,05,18,204,34,27,17,272,39,09,13,283,37*77
$GPGSV,3,3,12,13,06,103,32,08,06,168,15,12,01,324,35,42,42,105,34*7A
$GPRMC,091548.000,A,1335.0679,N,10051.2294,E,41.64,102.63,021010,,*35
$GPGGA,091549.000,1335.0654,N,10051.2410,E,2,09,0.9,20.1,M,-26.9,M,0.8,0000*6B
$GPGSA,A,3,04,28,02,27,17,05,09,10,13,,,,1.6,0.9,1.3*3E
$GPRMC,091549.000,A,1335.0654,N,10051.2410,E,41.80,102.37,021010,,*3A
$GPGGA,091550.000,1335.0630,N,10051.2527,E,2,09,0.9,20.0,M,-26.9,M,1.8,0000*64
$GPGSA,A,3,04,28,02,27,17,05,09,10,13,,,,1.6,0.9,1.3*3E
$GPRMC,091550.000,A,1335.0630,N,10051.2527,E,41.96,102.17,021010,,*30
$GPGGA,091551.000,1335.0605,N,10051.2644,E,2,10,0.8,20.0,M,-26.9,M,2.8,0000*6F
$GPGSA,A,3,04,28,02,27,17,05,08,09,10,13,,,1.5,0.8,1.2*35
$GPRMC,091551.000,A,1335.0605,N,10051.2644,E,42.10,101.84,021010,,*35
$GPGGA,091552.000,1335.0581,N,10051.2762,E,2,10,0.8,19.9,M,-26.9,M,3.8,0000*64
$GPGSA,A,3,04,28,02,27,17,05,08,09,10,13,,,1.5,0.8,1.2*35
$GPRMC,091552.000,A,1335.0581,N,10051.2762,E,42.21,101.72,021010,,*37
$GPGGA,091553.000,1335.0557,N,10051.2880,E,2,10,0.8,19.8,M,-26.9,M,0.8,0000*6F
$GPGSA,A,3,04,28,02,27,17,05,08,09,10,13,,,1.5,0.8,1.2*35
$GPGSV,3,1,12,10,57,177,40,04,51,342,41,28,46,143,40,02,43,284,43*78
$GPGSV,3,2,12,17,39,045,37,05,18,204,36,27,17,272,39,09,13,283,37*75
$GPGSV,3,3,12,13,06,103,33,08,06,168,34,12,01,324,31,42,42,105,36*7E
$GPRMC,091553.000,A,1335.0557,N,10051.2880,E,42.17,101.89,021010,,*3F
$GPGGA,091554.000,1335.0533,N,10051.2997,E,2,10,0.8,19.7,M,-26.9,M,0.8,0000*62
$GPGSA,A,3,04,28,02,27,17,05,08,09,10,13,,,1.5,0.8,1.2*35
$GPRMC,091554.000,A,1335.0533,N,10051.2997,E,42.17,102.12,021010,,*3C
$GPGGA,091555.000,1335.0508,N,10051.3115,E,2,10,0.8,19.7,M,-26.9,M,0.8,0000*68
$GPGSA,A,3,04,28,02,27,17,05,08,09,10,13,,,1.5,0.8,1.2*35
$GPRMC,091555.000,A,1335.0508,N,10051.3115,E,42.13,102.50,021010,,*34
$GPGGA,091556.000,1335.0482,N,10051.3232,E,2,10,0.8,19.6,M,-26.9,M,0.8,0000*6F
$GPGSA,A,3,04,28,02,27,17,05,08,09,10,13,,,1.5,0.8,1.2*35
$GPRMC,091556.000,A,1335.0482,N,10051.3232,E,42.28,102.67,021010,,*3E
$GPGGA,091557.000,1335.0456,N,10051.3350,E,2,10,0.8,19.5,M,-26.9,M,1.8,0000*60
$GPGSA,A,3,04,28,02,27,17,05,08,09,10,13,,,1.5,0.8,1.2*35
$GPRMC,091557.000,A,1335.0456,N,10051.3350,E,42.59,102.46,021010,,*36
$GPGGA,091558.000,1335.0431,N,10051.3470,E,2,10,0.8,19.4,M,-26.9,M,2.8,0000*69
$GPGSA,A,3,04,28,02,27,17,05,08,09,10,13,,,1.5,0.8,1.2*35
$GPGSV,3,1,12,10,57,177,41,04,51,342,41,28,46,143,40,02,43,284,43*79
$GPGSV,3,2,12,17,39,045,38,05,18,204,36,27,17,272,39,09,13,283,37*7A
$GPGSV,3,3,12,13,06,103,33,08,06,168,33,12,01,324,32,42,42,105,35*79
$GPRMC,091558.000,A,1335.0431,N,10051.3470,E,43.00,102.16,021010,,*35
$GPGGA,091559.000,1335.0406,N,10051.3590,E,2,10,0.8,19.3,M,-26.9,M,0.8,0000*66
$GPGSA,A,3,04,28,02,27,17,05,08,09,10,13,,,1.5,0.8,1.2*35
$GPRMC,091559.000,A,1335.0406,N,10051.3590,E,43.42,101.97,021010,,*33
$GPGGA,091600.000,1335.0380,N,10051.3712,E,2,10,0.8,19.3,M,-26.9,M,0.8,0000*68
$GPGSA,A,3,04,28,02,27,17,05,08,09,10,13,,,1.5,0.8,1.2*35
$GPRMC,091600.000,A,1335.0380,N,10051.3712,E,43.82,102.16,021010,,*3B
$GPGGA,091601.000,1335.0354,N,10051.3835,E,2,10,0.8,19.2,M,-26.9,M,0.8,0000*6B
$GPGSA,A,3,04,28,02,27,17,05,08,09,10,13,,,1.5,0.8,1.2*35
$GPRMC,091601.000,A,1335.0354,N,10051.3835,E,44.23,102.31,021010,,*30
$GPGGA,091602.000,1335.0327,N,10051.3958,E,2,10,0.8,19.2,M,-26.9,M,0.8,0000*66
$GPGSA,A,3,04,28,02,27,17,05,08,09,10,13,,,1.5,0.8,1.2*35
$GPRMC,091602.000,A,1335.0327,N,10051.3958,E,44.53,102.59,021010,,*34
$GPGGA,091603.000,1335.0300,N,10051.4083,E,2,10,0.8,19.2,M,-26.9,M,1.8,0000*6B
$GPGSA,A,3,04,28,02,27,17,05,08,09,10,13,,,1.5,0.8,1.2*35
$GPGSV,3,1,12,10,57,177,40,04,51,342,40,28,46,143,39,02,43,284,42*76
$GPGSV,3,2,12,17,39,045,37,05,18,204,31,27,17,272,39,09,13,283,37*72
$GPGSV,3,3,12,13,06,103,34,08,06,168,33,12,01,324,31,42,42,105,34*7C
$GPRMC,091603.000,A,1335.0300,N,10051.4083,E,44.79,102.70,021010,,*3B
$GPGGA,091604.000,1335.0273,N,10051.4208,E,2,10,0.8,19.2,M,-26.9,M,2.8,0000*6B
$GPGSA,A,3,04,28,02,27,17,05,08,09,10,13,,,1.5,0.8,1.2*35
$GPRMC,091604.000,A,1335.0273,N,10051.4208,E,45.00,102.56,021010,,*33
$GPGGA,091605.000,1335.0246,N,10051.4334,E,2,10,0.8,19.2,M,-26.9,M,0.8,0000*60
$GPGSA,A,3,04,28,02,27,17,05,08,09,10,13,,,1.5,0.8,1.2*35
