,1,c,0,ZZZZZZ*2B
$GPWPL,3911.456,N,09634.757,W,ZZZZZZ*59
$GPRMC,023802,A,3403.396,N,11711.666,W,000.0,033.8,231298,013.6,E*69
$GPRMB,A,,,,,,,,,,,,V*71
$GPGGA,023802,3403.396,N,11711.666,W,1,04,2.3,409.0,M,-30.7,M,,*73
$GPGSA,A,3,,04,,,08,09,,24,,,,,4.4,2.3,3.8*3B
$GPGSV,2,1,08,02,22,109,38,04,66,107,46,05,30,310,00,07,42,044,00*76
$GPGSV,2,2,08,08,25,314,38,09,54,282,45,16,08,077,00,24,43,183,41*73
$PGRME,53.2,M,88.3,M,103.1,M*2A
$GPGLL,3403.396,N,11711.666,W,023803,A*3B
$PGRMZ,1342,f,3*2F
$PGRMM,WGS 84*06
$GPBOD,,T,,M,,*47
$GPRTE,1,1,c,0,ZZZZZZ*2B
$GPWPL,3911.456,N,09634.757,W,ZZZZZZ*59
$GPRMC,023804,A,3403.396,N,11711.666,W,000.0,033.8,231298,013.6,E*6F
$GPRMB,A,,,,,,,,,,,,V*71
$GPGGA,023804,3403.396,N,11711.666,W,1,04,2.3,408.9,M,-30.7,M,,*7D
$GPGSA,A,3,,,,,,,,,,,,,4.4,2.3,3.8*38
$GPGSV,2,1,08,02,22,109,37,04,66,107,46,05,30,310,00,07,42,044,00*79
$GPGSV,2,2,08,08,25,314,38,09,54,282,45,16,08,077,00,24,43,183,41*73
$PGRME,53.2,M,88.3,M,103.1,M*2A
$GPGLL,3403.396,N,11711.666,W,023805,A*3D
$PGRMZ,1342,f,3*2F
$PGRMM,WGS 84*06
$GPBOD,,T,,M,,*47
$GPRTE,1,1,c,0,ZZZZZZ*2B
$GPWPL,3911.456,N,09634.757,W,ZZZZZZ*59
$GPRMC,023806,A,3403.397,N,11711.666,W,000.0,033.8,231298,013.6,E*6C
$GPRMB,A,,,,,,,,,,,,V*71
$GPGGA,023806,3403.397,N,11711.666,W,1,00,2.3,408.9,M,-30.7,M,,*7A
$GPGSA,A,3,,04,,,08,09,,24,,,,,4.4,2.3,3.8*3B
$GPGSV,2,1,08,02,22,109,38,04,66,107,46,05,30,310,00,07,41,045,00*74
$GPGSV,2,2,08,08,25,314,38,09,54,282,46,16,08,077,00,24,43,183,41*70
$PGRME,53.2,M,88.5,M,103.3,M*2E
$GPGLL,3403.396,N,11711.666,W,023807,A*3F
$PGRMZ,1340,f,3*2D
$PGRMM,WGS 84*06
$GPBOD,,T,,M,,*47
$GPRTE,1,1,c,0,ZZZZZZ*2B
$GPWPL,3911.456,N,09634.757,W,ZZZZZZ*59
$GPRMC,023808,A,3403.395,N,11711.666,W,000.0,033.8,231298,013.6,E*60
$GPRMB,A,,,,,,,,,,,,V*71
$GPGGA,023808,3403.395,N,11711.666,W,1,04,2.3,407.9,M,-30.7,M,,*7D
$GPGSA,A,3,,04,,,08,09,,24,,,,,4.4,2.3,3.8*3B
$GPGSV,2,1,08,02,22,109,38,04,66,107,46,05,30,310,00,07,41,045,00*74
$GPGSV,2,2,08,08,25,314,39,09,54,282,44,16,08,077,00,24,43,183,39*7C
$PGRME,53.2,M,88.5,M,103.3,M*2E
$GPGLL,3403.394,N,11711.667,W,023809,A*32
$PGRMZ,1338,f,3*22
$PGRMM,WGS 84*06
$GPBOD,,T,,M,,*47
$GPRTE,1,1,c,0,ZZZZZZ*2B
$GPWPL,3911.456,N,09634.757,W,ZZZZZZ*59
$GPRMC,023810,A,3403.394,N,11711.667,W,000.0,033.8,231298,013.6,E*69
$GPRMB,A,,,,,,,,,,,,V*71
$GPGGA,023810,3403.394,N,11711.667,W,1,04,2.3,407.2,M,-30.7,M,,*7F
$GPGSA,A,3,,04,,,08,09,,24,,,,,4.4,2.3,3.8*3B
$GPGSV,2,1,08,02,22,109,32,04,66,107,46,05,30,310,00,07,41,045,00*7E
$GPGSV,2,2,08,08,25,313,39,09,54,282,44,16,08,077,00,24,43,183,41*74
$PGRME,53.2,M,88.5,M,103.3,M*2E
$GPGLL,3403.394,N,11711.667,W,023811,A*3B
$PGRMZ,1336,f,3*2C
$PGRMM,WGS 84*06
$GPBOD,,T,,M,,*47
$GPRTE,1,1,c,0,ZZZZZZ*2B
$GPWPL,3911.456,N,09634.757,W,ZZZZZZ*59
$GPRMC,023812,A,3403.392,N,11711.666,W,003.7,210.2,231298,013.6,E*61
$GPRMB,A,,,,,,,,,,,,V*71
$GPGGA,023812,3403.392,N,11711.666,W,1,04,2.3,406.4,M,-30.7,M,,*7D
$GPGSA,A,3,,04,,,08,09,,24,,,,,4.4,2.3,3.8*3B
$GPGSV,2,1,08,02,22,109,37,04,66,107,45,05,30,310,00,07,41,045,00*78
$GPGSV,2,2,08,08,25,313,40,09,54,282,45,16,08,077,00,24,43,183,39*74
$PGRME,53.2,M,88.5,M,103.3,M*2E
$GPGLL,3403.392,N,11711.666,W,023813,A*3E
$PGRMZ,1333,f,3*29
$PGRMM,WGS 84*06
$GPBOD,,T,,M,,*47
$GPRTE,1,1,c,0,ZZZZZZ*2B
$GPWPL,3911.456,N,09634.757,W,ZZZZZZ*59
$GPRMC,023814,A,3403.392,N,11711.666,W,001.5,210.2,231298,013.6,E*67
$GPRMB,A,,,,,,,,,,,,V*71
$GPGGA,023814,3403.391,N,11711.666,W,1,04,2.3,401.1,M,-30.7,M,,*7A
$GPGSA,A,3,,04,,,08,09,,24,,,,,4.4,2.3,3.8*3B
$GPGSV,2,1,08,02,22,109,35,04,66,107,46,05,30,310,00,07,41,045,00*79
$GPGSV,2,2,08,08,25,313,40,09,54,280,45,16,08,077,00,24,43,183,39*76
$PGRME,53.2,M,88.5,M,103.3,M*2E
$GPGLL,3403.392,N,11711.665,W,023815,A*3B
$PGRMZ,1315,f,3*2D
$PGRMM,WGS 84*06
$GPBOD,,T,,M,,*47
$GPRTE,1,1,c,0,ZZZZZZ*2B
$GPWPL,3911.456,N,09634.757,W,ZZZZZZ*59
$GPRMC,023816,A,3403.391,N,11711.667,W,000.0,210.2,231298,013.6,E*63
$GPRMB,A,,,,,,,,,,,,V*71
$GPGGA,023816,3403.391,N,11711.667,W,1,04,2.3,400.4,M,-30.7,M,,*7D
$GPGSA,A,3,,04,,,08,09,,24,,,,,4.4,2.3,3.8*3B
$GPGSV,2,1,08,02,22,109,32,04,66,107,45,05,30,310,00,07,41,045,00*7D
$GPGSV,2,2,08,08,25,313,40,09,54,280,44,16,08,077,00,24,43,183,39*77
$PGRME,53.2,M,88.5,M,103.3,M*2E
$GPGLL,3403.391,N,11711.668,W,023817,A*37
$PGRMZ,1313,f,3*2B
$PGRMM,WGS 84*06
$GPBOD,,T,,M,,*47
$GPRTE,1,1,c,0,ZZZZZZ*2B
$GPWPL,3911.456,N,09634.757,W,ZZZZZZ*59
$GPRMC,023818,A,3403.389,N,11711.670,W,000.0,210.2,231298,013.6,E*62
$GPRMB,A,,,,,,,,,,,,V*71
$GPGGA,023818,3403.389,N,11711.670,W,1,04,2.3,397.8,M,-30.7,M,,*79
$GPGSA,A,3,,04,,,08,09,,24,,,,,4.4,2.3,3.8*3B
$GPGSV,2,1,08,02,22,109,32,04,66,107,46,05,30,310,00,07,41,045,00*7E
$GPGSV,2,2,08,08,25,313,40,09,54,280,46,16,08,077,00,24,43,183,40*7B
$PGRME,53.2,M,88.8,M,103.5,M*25
$GPGLL,3403.390,N,11711.670,W,023819,A*31
$PGRMZ,1305,f,3*2C
$PGRMM,WGS 84*06
$GPBOD,,T,,M,,*47
$GPRTE,1,1,c,0,ZZZZZZ*2B
$GPWPL,3911.456,N,09634.757,W,ZZZZZZ*59
$GPRMC,023820,A,3403.389,N,11711.671,W,000.0,210.2,231298,013.6,E*68
$GPRMB,A,,,,,,,,,,,,V*71
$GPGGA,023820,3403.389,N,11711.671,W,1,04,2.3,397.6,M,-30.7,M,,*7D
$GPGSA,A,3,,04,,,08,09,,24,,,,,4.4,2.3,3.8*3B
$GPGSV,2,1,08,02,22,109,32,04,66,107,45,05,30,310,00,07,41,045,00*7D
$GPGSV,2,2,08,08,25,313,40,09,54,280,45,16,08,077,00,24,43,183,40*78
$PGRME,53.2,M,88.8,M,103.5,M*25
$GPGLL,3403.389,N,11711.671,W,023821,A*33
$PGRMZ,1304,f,3*2D
$PGRMM,WGS 84*06
$GPBOD,,T,,M,,*47
$GPRTE,1,1,c,0,ZZZZZZ*2B
$GPWPL,3911.456,N,09634.757,W,ZZZZZZ*59
$GPRMC,023822,A,3403.389,N,11711.672,W,000.0,210.2,231298,013.6,E*69
$GPRMB,A,,,,,,,,,,,,V*71
$GPGGA,023822,3403.389,N,11711.672,W,1,04,9.2,398.4,M,-30.7,M,,*7B
$GPGSA,A,3,,,,,08,09,,24,,,,,9.2,9.2,1.0*34
$GPGSV,2,1,08,02,22,109,34,04,66,107,46,05,30,310,00,07,41,045,00*78
$GPGSV,2,2,08,08,25,313,38,09,54,280,45,16,08,077,00,24,43,183,41*76
$PGRME,216.8,M,150.0,M,263.6,M*26
$GPGLL,3403.389,N,11711.673,W,023823,A*33
$PGRMZ,1308,f,3*21
$PGRMM,WGS 84*06
$GPBOD,,T,,M,,*47
$GPRTE,1,1,c,0,ZZZZZZ*2B
$GPWPL,3911.456,N,09634.757,W,ZZZZZZ*59
$GPRMC,023824,A,3403.388,N,11711.674,W,003.8,262.0,231298,013.6,E*64
$GPRMB,A,,,,,,,,,,,,V*71
$GPGGA,023824,3403.388,N,11711.674,W,1,03,2.3,399.2,M,-30.7,M,,*70
$GPGSA,A,3,,04,,,08,09,,24,,,,,4.4,2.3,3.8*3B
$GPGSV,2,1,08,02,22,109,32,04,66,107,46,05,30,310,00,07,41,045,00*7E
$GPGSV,2,2,08,08,25,313,38,09,54,280,45,16,08,077,00,24,43,183,41*76
$PGRME,53.2,M,89.0,M,103.6,M*2F
$GPGLL,3403.388,N,11711.674,W,023825,A*33
$PGRMZ,1312,f,3*2A
$PGRMM,WGS 84*06
$GPBOD,,T,,M,,*47
$GPRTE,1,1,c,0,ZZZZZZ*2B
$GPWPL,3911.456,N,09634.757,W,ZZZZZZ*59
$GPRMC,023826,A,3403.388,N,11711.676,W,003.5,262.1,231298,013.6,E*68
$GPRMB,A,,,,,,,,,,,,V*71
$GPGGA,023826,3403.388,N,11711.676,W,1,04,2.3,400.2,M,-30.7,M,,*70
$GPGSA,A,3,,,,,08,,,,,,,,4.4,2.3,3.8*30
$GPGSV,2,1,08,02,22,109,32,04,66,107,43,05,30,310,00,07,41,045,00*7B
$GPGSV,2,2,08,08,25,313,38,09,54,280,43,16,08,077,00,24,43,183,41*70
$PGRME,53.2,M,89.0,M,103.6,M*2F
$GPGLL,3403.388,N,11711.677,W,023827,A*32
$PGRMZ,1313,f,3*2B
$PGRMM,WGS 84*06
$GPBOD,,T,,M,,*47
$GPRTE,1,1,c,0,ZZZZZZ*2B
$GPWPL,3911.456,N,09634.757,W,ZZZZZZ*59
$GPRMC,023828,A,3403.384,N,11711.676,W,002.2,098.6,231298,013.6,E*6C
$GPRMB,A,,,,,,,,,,,,V*71
$GPGGA,023828,3403.384,N,11711.675,W,1,01,2.3,401.9,M,-30.7,M,,*7E
$GPGSA,A,3,,,,,08,,,,,,,,4.4,2.3,3.8*30
$GPGSV,2,1,08,02,22,109,32,04,66,107,43,05,30,310,40,07,41,045,00*7F
$GPGSV,2,2,08,08,25,313,37,09,54,280,43,16,08,077,00,24,43,183,41*7F
$PGRME,53.2,M,89.0,M,103.7,M*2E
$GPGLL,3403.384,N,11711.675,W,023829,A*32
$PGRMZ,1318,f,3*20
$PGRMM,WGS 84*06
$GPBOD,,T,,M,,*47
$GPRTE,1,1,c,0,ZZZZZZ*2B
$GPWPL,3911.456,N,09634.757,W,ZZZZZZ*59
$GPRMC,023830,A,3403.388,N,11711.675,W,000.0,098.6,231298,013.6,E*6A
$GPRMB,A,,,,,,,,,,,,V*71
$GPGGA,023830,3403.388,N,11711.675,W,1,01,2.3,406.0,M,-30.7,M,,*75
$GPGSA,A,3,,04,,,08,09,,24,,,,,4.4,2.3,3.8*3B
$GPGSV,2,1,08,02,22,109,37,04,66,107,46,05,30,310,40,07,41,045,00*7F
$GPGSV,2,2,08,08,25,313,32,09,54,280,44,16,08,077,00,24,43,183,40*7C
$PGRME,53.2,M,89.1,M,103.8,M*20
$GPGLL,3403.388,N,11711.675,W,023831,A*37
$PGRMZ,1332,f,3*28
$PGRMM,WGS 84*06
$GPBOD,,T,,M,,*47
$GPRTE,1,1,c,0,ZZZZZZ*2B
$GPWPL,3911.456,N,09634.757,W,ZZZZZZ*59
$GPRMC,023832,A,3403.386,N,11711.671,W,000.0,098.6,231298,013.6,E*62
$GPRMB,A,,,,,,,,,,,,V*71
$GPGGA,023832,3403.386,N,11711.671,W,1,04,2.4,405.8,M,-30.7,M,,*74
$GPGSA,A,3,,04,,,08,09,,24,,,,,2.4,2.4,1.0*30
$GPGSV,2,1,08,02,22,109,35,04,66,107,45,05,30,310,40,07,41,045,00*7E
$GPGSV,2,2,08,08,25,313,37,09,54,280,44,16,08,077,00,24,43,183,42*7B
$PGRME,53.2,M,89.2,M,103.8,M*23
$GPGLL,3403.387,N,11711.667,W,023833,A*39
$PGRMZ,1307,f,3*2E
$PGRMM,WGS 84*06
$GPBOD,,T,,M,,*47
$GPRTE,1,1,c,0,ZZZZZZ*2B
$GPWPL,3911.456,N,09634.757,W,ZZZZZZ*59
$GPRMC,023834,A,3403.388,N,11711.669,W,000.0,098.6,231298,013.6,E*63
$GPRMB,A,,,,,,,,,,,,V*71
$GPGGA,023834,3403.388,N,11711.669,W,1,04,2.3,402.1,M,-30.7,M,,*7C
$GPGSA,A,3,,04,,,08,09,,24,,,,,4.4,2.3,3.8*3B
$GPGSV,2,1,08,02,22,109,32,04,66,107,45,05,30,310,38,07,41,045,00*76
$GPGSV,2,2,08,08,25,313,35,09,54,280,45,16,08,077,00,24,43,183,40*7A
$PGRME,53.2,M,89.2,M,103.8,M*23
$GPGLL,3403.390,N,11711.668,W,023835,A*36
$PGRMZ,1323,f,3*28
$PGRMM,WGS 84*06
$GPBOD,,T,,M,,*47
$GPRTE,1,1,c,0,ZZZZZZ*2B
$GPWPL,3911.456,N,09634.757,W,ZZZZZZ*59
$GPRMC,023836,A,3403.389,N,11711.668,W,000.0,098.6,231298,013.6,E*61
$GPRMB,A,,,,,,,,,,,,V*71
$GPGGA,023836,3403.389,N,11711.668,W,1,04,2.3,403.3,M,-30.7,M,,*7D
$GPGSA,A,3,,04,,,08,09,,24,,,,,4.4,2.3,3.8*3B
$GPGSV,2,1,08,02,22,109,38,04,66,107,44,05,30,310,40,07,41,045,00*72
$GPGSV,2,2,08,08,25,313,37,09,54,280,45,16,08,077,00,24,43,183,42*7A
$PGRME,53.2,M,89.2,M,103.8,M*23
$GPGLL,3403.389,N,11711.668,W,023837,A*3C
$PGRMZ,1309,f,3*20
$PGRMM,WGS 84*06
$GPBOD,,T,,M,,*47
$GPRTE,1,1,c,0,ZZZZZZ*2B
$GPWPL,3911.456,N,09634.757,W,ZZZZZZ*59
$GPRMC,023838,A,3403.390,N,11711.666,W,000.0,098.6,231298,013.6,E*69
$GPRMB,A,,,,,,,,,,,,V*71
$GPGGA,023838,3403.390,N,11711.666,W,1,04,2.3,396.1,M,-30.7,M,,*7C
$GPGSA,A,3,,04,,,08,09,,24,,,,,4.4,2.3,3.8*3B
$GPGSV,2,1,08,02,22,109,36,04,66,107,44,05,30,310,38,07,41,045,00*73
$GPGSV,2,2,08,08,25,313,32,09,54,280,46,16,08,077,00,24,43,183,42*7C
$PGRME,53.2,M,89.2,M,103.8,M*23
$GPGLL,3403.390,N,11711.665,W,023839,A*37
$PGRMZ,1299,f,3*28
$PGRMM,WGS 84*06
$GPBOD,,T,,M,,*47
$GPRTE,1,1,c,0,ZZZZZZ*2B
$GPWPL,3911.456,N,09634.757,W,ZZZZZZ*59
$GPRMC,023840,A,3403.384,N,11711.666,W,004.3,186.3,231298,013.6,E*6F
$GPRMB,A,,,,,,,,,,,,V*71
$GPGGA,023840,3403.384,N,11711.666,W,1,04,2.4,395.8,M,-30.7,M,,*7B
$GPGSA,A,3,,04,,,,09,,24,,,,,2.4,2.4,1.0*38
$GPGSV,2,1,08,02,22,109,40,04,66,107,44,05,30,310,41,07,41,045,00*7C
$GPGSV,2,2,08,08,25,313,32,09,54,280,46,16,08,077,00,24,43,183,44*7A
$PGRME,55.3,M,150.0,M,159.9,M*1D
$GPGLL,3403.381,N,11711.667,W,023841,A*3A
$PGRMZ,1298,f,3*29
$PGRMM,WGS 84*06
$GPBOD,,T,,M,,*47
$GPRTE,1,1,c,0,ZZZZZZ*2B
$GPWPL,3911.456,N,09634.757,W,ZZZZZZ*59
$GPRMC,023842,A,3403.382,N,11711.667,W,000.0,186.3,231298,013.6,E*6D
$GPRMB,A,,,,,,,,,,,,V*71
$GPGGA,023842,3403.382,N,11711.667,W,1,03,2.4,395.6,M,-30.7,M,,*77
$GPGSA,A,3,,04,,,08,09,,24,,,,,2.4,2.4,1.0*30
$GPGSV,2,1,08,02,22,109,40,04,66,107,45,05,30,310,40,07,41,045,00*7C
$GPGSV,2,2,08,08,25,313,35,09,54,280,46,16,09,076,00,24,43,183,43*7A
$PGRME,53.1,M,89.4,M,104.0,M*29
$GPGLL,3403.384,N,11711.666,W,023843,A*3C
$PGRMZ,1296,f,3*27
$PGRMM,WGS 84*06
$GPBOD,,T,,M,,*47
$GPRTE,1,1,c,0,ZZZZZZ*2B
$GPWPL,3911.456,N,09634.757,W,ZZZZZZ*59
$GPRMC,023844,A,3403.386,N,11711.666,W,000.0,186.3,231298,013.6,E*6E
$GPRMB,A,,,,,,,,,,,,V*71
$GPGGA,023844,3403.385,N,11711.666,W,1,04,2.3,394.9,M,-30.7,M,,*79
$GPGSA,A,3,,04,,,08,09,,24,,,,,4.4,2.3,3.8*3B
$GPGSV,2,1,08,02,22,109,39,04,66,107,44,05,30,310,41,07,41,045,00*72
$GPGSV,2,2,08,08,25,313,35,09,54,280,47,16,09,076,00,24,43,183,43*7B
$PGRME,53.1,M,89.4,M,104.0,M*29
$GPGLL,3403.385,N,11711.667,W,023845,A*3A
$PGRMZ,1293,f,3*22
$PGRMM,WGS 84*06
$GPBOD,,T,,M,,*47
$GPRTE,1,1,c,0,ZZZZZZ*2B
$GPWPL,3911.456,N,09634.757,W,ZZZZZZ*59
$GPRMC,023846,A,3403.384,N,11711.667,W,000.0,186.3,231298,013.6,E*6F
$GPRMB,A,,,,,,,,,,,,V*71
$GPGGA,023846,3403.384,N,11711.667,W,1,04,2.3,393.7,M,-30.7,M,,*72
$GPGSA,A,3,,04,,,08,09,,24,,,,,4.4,2.3,3.8*3B
$GPGSV,2,1,08,02,22,109,39,04,66,107,44,05,30,310,41,07,41,045,00*72
$GPGSV,2,2,08,08,25,313,35,09,54,280,47,16,09,076,00,24,43,183,43*7B
$PGRME,53.1,M,89.4,M,104.0,M*29
$GPGLL,3403.384,N,11711.667,W,023847,A*39
$PGRMZ,1291,f,3*20
$PGRMM,WGS 84*06
$GPBOD,,T,,M,,*47
$GPRTE,1,1,c,0,ZZZZZZ*2B
$GPWPL,3911.456,N,09634.757,W,ZZZZZZ*59
$GPRMC,023848,A,3403.382,N,11711.668,W,000.0,186.3,231298,013.6,E*68
$GPRMB,A,,,,,,,,,,,,V*71
$GPGGA,023848,3403.382,N,11711.668,W,1,04,2.4,393.2,M,-30.7,M,,*77
$GPGSA,A,3,,04,,,,09,,24,,,,,2.4,2.4,1.0*38
$GPGSV,2,1,08,02,22,109,39,04,66,107,44,05,30,310,40,07,41,045,00*73
$GPGSV,2,2,08,08,25,313,32,09,54,280,47,16,09,076,00,24,43,183,44*7B
$PGRME,55.3,M,150.0,M,159.9,M*1D
$GPGLL,3403.382,N,11711.668,W,023849,A*3E
$PGRMZ,1290,f,3*21
$PGRMM,WGS 84*06
$GPBOD,,T,,M,,*47
$GPRTE,1,1,c,0,ZZZZZZ*2B
$GPWPL,3911.456,N,09634.757,W,ZZZZZZ*59
$GPRMC,023850,A,3403.381,N,11711.668,W,000.0,186.3,231298,013.6,E*62
$GPRMB,A,,,,,,,,,,,,V*71
$GPGGA,023850,3403.381,N,11711.668,W,1,03,2.4,393.1,M,-30.7,M,,*79
$GPGSA,A,3,,04,,,,09,,24,,,,,2.4,2.4,1.0*38
$GPGSV,2,1,08,02,22,109,41,04,66,107,44,05,30,310,40,07,41,045,00*7C
$GPGSV,2,2,08,08,25,313,32,09,54,280,46,16,09,076,00,24,43,183,44*7A
$PGRME,55.3,M,150.0,M,159.9,M*1D
$GPGLL,3403.381,N,11711.668,W,023851,A*34
$PGRMZ,1289,f,3*29
$PGRMM,WGS 84*06
$GPBOD,,T,,M,,*47
$GPRTE,1,1,c,0,ZZZZZZ*2B
$GPWPL,3911.456,N,09634.757,W,ZZZZZZ*59
$GPRMC,023852,A,3403.381,N,11711.669,W,000.0,186.3,231298,013.6,E*61
$GPRMB,A,,,,,,,,,,,,V*71
$GPGGA,023852,3403.380,N,11711.669,W,1,03,2.4,392.9,M,-30.7,M,,*72
$GPGSA,A,3,,04,,,,,,,,,,,2.4,2.4,1.0*37
$GPGSV,2,1,08,02,22,109,40,04,66,107,44,05,30,310,40,07,41,045,00*7D
$GPGSV,2,2,08,08,25,313,32,09,54,280,46,16,09,076,00,24,43,183,44*7A
$PGRME,55.3,M,150.0,M,159.9,M*1D
$GPGLL,3403.380,N,11711.669,W,023853,A*36
$PGRMZ,1289,f,3*29
$PGRMM,WGS 84*06
$GPBOD,,T,,M,,*47
$GPRTE,1,1,c,0,ZZZZZZ*2B
$GPWPL,3911.456,N,09634.757,W,ZZZZZZ*59
$GPRMC,023854,A,3403.381,N,11711.669,W,000.0,186.3,231298,013.6,E*67
$GPRMB,A,,,,,,,,,,,,V*71
$GPGGA,023854,3403.381,N,11711.669,W,1,01,3.5,392.9,M,-30.7,M,,*77
$GPGSA,A,3,,04,,,08,09,,,,,,,3.5,3.5,1.0*36
$GPGSV,2,1,08,02,22,109,40,04,66,107,43,05,30,310,40,07,41,045,00*7A
$GPGSV,2,2,08,08,25,313,34,09,54,280,46,16,09,076,00,24,43,183,44*7C
$PGRME,83.3,M,150.0,M,171.6,M*13
$GPGLL,3403.381,N,11711.669,W,023855,A*31
$PGRMZ,1289,f,3*29
$PGRMM,WGS 84*06
$GPBOD,,T,,M,,*47
$GPRTE,1,1,c,0,ZZZZZZ*2B
$GPWPL,3911.456,N,09634.757,W,ZZZZZZ*59
$GPRMC,023856,A,3403.381,N,11711.668,W,000.0,186.3,231298,013.6,E*64
$GPRMB,A,,,,,,,,,,,,V*71
$GPGGA,023856,3403.381,N,11711.668,W,1,03,2.3,392.4,M,-30.7,M,,*7C
$GPGSA,A,3,,,,,,09,,24,,,,,4.4,2.3,3.8*37
$GPGSV,2,1,08,02,22,109,39,04,66,107,43,05,30,310,40,07,41,045,00*74
$GPGSV,2,2,08,08,25,313,34,09,54,280,46,16,09,076,00,24,43,183,44*7C
$PGRME,53.1,M,89.8,M,104.3,M*26
$GPGLL,3403.381,N,11711.668,W,023857,A*32
$PGRMZ,1287,f,3*27
$PGRMM,WGS 84*06
$GPBOD,,T,,M,,*47
$GPRTE,1,1,c,0,ZZZZZZ*2B
$GPWPL,3911.456,N,09634.757,W,ZZZZZZ*59
$GPRMC,023858,A,3403.380,N,11711.669,W,000.0,186.3,231298,013.6,E*6A
$GPRMB,A,,,,,,,,,,,,V*71
$GPGGA,023858,3403.380,N,11711.669,W,1,02,2.3,392.3,M,-30.7,M,,*74
$GPGSA,A,3,,,,,,,,,,,,,4.4,2.3,3.8*38
$GPGSV,2,1,08,02,22,109,39,04,66,107,43,05,30,310,40,07,41,045,00*74
$GPGSV,2,2,08,08,25,313,34,09,54,280,46,16,09,076,00,24,43,183,44*7C
$PGRME,53.1,M,89.8,M,104.3,M*26
$GPGLL,3403.380,N,11711.669,W,023859,A*3C
$PGRMZ,1287,f,3*27
$PGRMM,WGS 84*06
$GPBOD,,T,,M,,*47
$GPRTE,1,1,c,0,ZZZZZZ*2B
$GPWPL,3911.456,N,09634.757,W,ZZZZZZ*59
$GPRMC,023900,A,3403.380,N,11711.669,W,000.0,186.3,231298,013.6,E*66
$GPRMB,A,,,,,,,,,,,,V*71
$GPGGA,023900,3403.380,N,11711.669,W,1,00,4.3,392.3,M,-30.7,M,,*7C
$GPGSA,A,3,02,04,,,08,09,,,,,,,5.1,4.3,2.8*3C
$GPGSV,2,1,08,02,22,109,39,04,66,107,43,05,30,310,40,07,41,045,00*74
$GPGSV,2,2,08,08,25,313,37,09,54,280,46,16,09,076,00,24,43,183,43*78
$PGRME,100.8,M,65.4,M,120.2,M*11
$GPGLL,3403.380,N,11711.670,W,023901,A*38
$PGRMZ,1291,f,3*20
$PGRMM,WGS 84*06
$GPBOD,,T,,M,,*47
$GPRTE,1,1,c,0,ZZZZZZ*2B
$GPWPL,3911.456,N,09634.757,W,ZZZZZZ*59
$GPRMC,023902,A,3403.379,N,11711.672,W,001.7,186.3,231298,013.6,E*6E
$GPRMB,A,,,,,,,,,,,,V*71
$GPGGA,023902,3403.379,N,11711.672,W,1,04,1.7,394.1,M,-30.7,M,,*73
$GPGSA,A,3,02,04,,,08,09,,24,,,,,2.9,1.7,2.3*3F
$GPGSV,2,1,08,02,22,109,37,04,66,107,46,05,30,310,32,07,41,045,00*7A
$GPGSV,2,2,08,08,25,313,40,09,54,280,45,16,09,076,00,24,43,183,43*7B
$PGRME,39.6,M,54.4,M,67.3,M*15
$GPGLL,3403.379,N,11711.674,W,023903,A*38
$PGRMZ,1298,f,3*29
$PGRMM,WGS 84*06
$GPBOD,,T,,M,,*47
$GPRTE,1,1,c,0,ZZZZZZ*2B
$GPWPL,3911.456,N,09634.757,W,ZZZZZZ*59
$GPRMC,023904,A,3403.378,N,11711.675,W,001.7,186.3,231298,013.6,E*6E
$GPRMB,A,,,,,,,,,,,,V*71
$GPGGA,023904,3403.378,N,11711.675,W,1,05,2.3,396.2,M,-30.7,M,,*74
$GPGSA,A,3,,04,,,08,09,,24,,,,,4.4,2.3,3.8*3B
$GPGSV,2,1,08,02,22,109,32,04,66,107,47,05,30,310,41,07,41,045,00*7A
$GPGSV,2,2,08,08,25,313,37,09,54,280,47,16,09,076,00,24,43,183,42*78
$PGRME,53.1,M,90.0,M,104.5,M*20
$GPGLL,3403.378,N,11711.675,W,023905,A*3E
$PGRMZ,1302,f,3*2B
$PGRMM,WGS 84*06
$GPBOD,,T,,M,,*47
$GPRTE,1,1,c,0,ZZZZZZ*2B
$GPWPL,3911.456,N,09634.757,W,ZZZZZZ*59
$GPRMC,023906,A,3403.376,N,11711.676,W,001.8,186.3,231298,013.6,E*6E
$GPRMB,A,,,,,,,,,,,,V*71
$GPGGA,023906,3403.376,N,11711.676,W,1,04,2.3,396.6,M,-30.7,M,,*7E
$GPGSA,A,3,,04,,,,09,,24,,,,,2.4,2.4,1.0*38
$GPGSV,2,1,08,02,22,109,32,04,66,107,48,05,30,310,32,07,41,045,00*71
$GPGSV,2,2,08,08,25,313,32,09,54,280,45,16,09,076,00,24,43,183,45*78
$PGRME,55.4,M,150.0,M,159.9,M*1A
$GPGLL,3403.376,N,11711.676,W,023907,A*31
$PGRMZ,1301,f,3*28
$PGRMM,WGS 84*06
$GPBOD,,T,,M,,*47
$GPRTE,1,1,c,0,ZZZZZZ*2B
$GPWPL,3911.456,N,09634.757,W,ZZZZZZ*59
$GPRMC,023908,A,3403.375,N,11711.676,W,002.1,204.7,231298,013.6,E*64
$GPRMB,A,,,,,,,,,,,,V*71
$GPGGA,023908,3403.375,N,11711.676,W,1,03,2.4,396.4,M,-30.7,M,,*71
$GPGSA,A,3,02,04,,,,09,,24,,,,,3.9,2.2,3.3*31
$GPGSV,2,1,08,02,22,109,36,04,66,107,44,05,30,310,32,07,41,045,00*79
$GPGSV,2,2,08,08,25,313,32,09,54,280,45,16,09,076,00,24,43,183,45*78
$PGRME,51.1,M,77.2,M,92.5,M*17
$GPGLL,3403.373,N,11711.677,W,023909,A*3B
$PGRMZ,1308,f,3*21
$PGRMM,WGS 84*06
$GPBOD,,T,,M,,*47
$GPRTE,1,1,c,0,ZZZZZZ*2B
$GPWPL,3911.456,N,09634.757,W,ZZZZZZ*59
$GPRMC,023910,A,3403.370,N,11711.679,W,002.2,195.7,231298,013.6,E*6F
$GPRMB,A,,,,,,,,,,,,V*71
$GPGGA,023910,3403.370,N,11711.679,W,1,04,2.2,400.6,M,-30.7,M,,*79
$GPGSA,A,3,02,04,,,,09,,24,,,,,3.9,2.2,3.3*31
$GPGSV,2,1,08,02,22,109,36,04,66,107,47,05,30,310,32,07,41,045,00*7A
$GPGSV,2,2,08,08,25,313,32,09,54,280,45,16,09,076,00,24,43,183,42*7F
$PGRME,51.1,M,77.2,M,92.5,M*17
$GPGLL,3403.367,N,11711.680,W,023911,A*3F
$PGRMZ,1322,f,3*29
$PGRMM,WGS 84*06
$GPBOD,,T,,M,,*47
$GPRTE,1,1,c,0,ZZZZZZ*2B
$GPWPL,3911.456,N,09634.757,W,ZZZZZZ*59
$GPRMC,023912,A,3403.367,N,11711.680,W,002.1,198.4,231298,013.6,E*60
$GPRMB,A,,,,,,,,,,,,V*71
$GPGGA,023912,3403.367,N,11711.680,W,1,04,2.2,402.6,M,-30.7,M,,*79
$GPGSA,A,3,,04,,,,09,,24,,,,,3.9,2.2,3.3*33
$GPGSV,2,1,08,02,22,109,32,04,66,107,46,05,30,310,32,07,41,045,00*7F
$GPGSV,2,2,08,08,25,313,32,09,54,280,45,16,09,076,00,24,44,183,40*7A
$PGRME,55.4,M,150.0,M,159.9,M*1A
$GPGLL,3403.367,N,11711.680,W,023913,A*3D
$PGRMZ,1321,f,3*2A
$PGRMM,WGS 84*06
$GPBOD,,T,,M,,*47
$GPRTE,1,1,c,0,ZZZZZZ*2B
$GPWPL,3911.456,N,09634.757,W,ZZZZZZ*59
$GPRMC,023914,A,3403.368,N,11711.681,W,008.3,266.1,231298,013.6,E*67
$GPRMB,A,,,,,,,,,,,,V*71
$GPGGA,023914,3403.368,N,11711.681,W,1,03,2.4,402.4,M,-30.7,M,,*72
$GPGSA,A,3,,04,,,,09,,24,,,,,2.4,2.4,1.0*38
$GPGSV,2,1,08,02,22,109,32,04,66,107,46,05,30,310,32,07,41,045,00*7F
$GPGSV,2,2,08,08,25,313,32,09,54,280,46,16,09,076,00,24,44,183,45*7C
$PGRME,55.4,M,150.0,M,159.9,M*1A
$GPGLL,3403.368,N,11711.683,W,023915,A*37
$PGRMZ,1320,f,3*2B
$PGRMM,WGS 84*06
$GPBOD,,T,,M,,*47
$GPRTE,1,1,c,0,ZZZZZZ*2B
$GPWPL,3911.456,N,09634.757,W,ZZZZZZ*59
$GPRMC,023916,A,3403.368,N,11711.686,W,008.3,266.1,231298,013.6,E*62
$GPRMB,A,,,,,,,,,,,,V*71
$GPGGA,023916,3403.368,N,11711.687,W,1,03,2.4,402.2,M,-30.7,M,,*70
$GPGSA,A,3,,04,,,,09,,24,,,,,2.4,2.4,1.0*38
$GPGSV,2,1,08,02,22,109,32,04,66,107,46,05,30,310,39,07,41,045,00*74
$GPGSV,2,2,08,08,25,313,32,09,54,280,45,16,09,076,00,24,44,183,38*75
$PGRME,55.4,M,150.0,M,159.9,M*1A
$GPGLL,3403.370,N,11711.691,W,023917,A*3F
$PGRMZ,1319,f,3*21
$PGRMM,WGS 84*06
$GPBOD,,T,,M,,*47
$GPRTE,1,1,c,0,ZZZZZZ*2B
$GPWPL,3911.456,N,09634.757,W,ZZZZZZ*59
$GPRMC,023918,A,3403.365,N,11711.700,W,012.1,255.6,231298,013.6,E*60
$GPRMB,A,,,,,,,,,,,,V*71
$GPGGA,023918,3403.365,N,11711.700,W,1,03,2.2,404.2,M,-30.7,M,,*7D
$GPGSA,A,3,02,04,,,,09,,24,,,,,3.9,2.2,3.3*31
$GPGSV,2,1,08,02,22,109,37,04,66,107,47,05,30,310,32,07,41,045,00*7B
$GPGSV,2,2,08,08,25,313,32,09,54,280,47,16,09,076,00,24,44,183,43*7B
$PGRME,51.1,M,77.1,M,92.5,M*14
$GPGLL,3403.364,N,11711.702,W,023919,A*3F
$PGRMZ,1326,f,3*2D
$PGRMM,WGS 84*06
$GPBOD,,T,,M,,*47
$GPRTE,1,1,c,0,ZZZZZZ*2B
$GPWPL,3911.456,N,09634.757,W,ZZZZZZ*59
$GPRMC,023920,A,3403.357,N,11711.710,W,014.3,226.0,231298,013.6,E*6D
$GPRMB,A,,,,,,,,,,,,V*71
$GPGGA,023920,3403.357,N,11711.711,W,1,04,2.2,406.0,M,-30.7,M,,*70
$GPGSA,A,3,02,04,,,,09,,24,,,,,3.9,2.2,3.3*31
$GPGSV,2,1,08,02,22,109,32,04,66,107,47,05,30,310,32,07,41,045,00*7E
$GPGSV,2,2,08,08,25,313,32,09,54,280,41,16,09,076,00,24,44,183,39*70
$PGRME,51.1,M,77.1,M,92.5,M*14
$GPGLL,3403.355,N,11711.715,W,023921,A*30
$PGRMZ,1337,f,3*2D
$PGRMM,WGS 84*06
$GPBOD,,T,,M,,*47
$GPRTE,1,1,c,0,ZZZZZZ*2B
$GPWPL,3911.456,N,09634.757,W,ZZZZZZ*59
$GPRMC,023922,A,3403.356,N,11711.716,W,009.3,227.9,231298,013.6,E*6C
$GPRMB,A,,,,,,,,,,,,V*71
$GPGGA,023922,3403.356,N,11711.716,W,1,04,2.4,407.6,M,-30.7,M,,*75
$GPGSA,A,3,,04,,,,09,,24,,,,,2.4,2.4,1.0*38
$GPGSV,2,1,08,02,22,109,32,04,66,107,40,05,30,310,36,07,41,045,00*7D
$GPGSV,2,2,08,08,25,313,32,09,54,280,44,16,09,076,00,24,44,183,32*7E
$PGRME,55.4,M,150.0,M,159.9,M*1A
$GPGLL,3403.358,N,11711.713,W,023923,A*39
$PGRMZ,1337,f,3*2D
$PGRMM,WGS 84*06
$GPBOD,,T,,M,,*47
$GPRTE,1,1,c,0,ZZZZZZ*2B
$GPWPL,3911.456,N,09634.757,W,ZZZZZZ*59
$GPRMC,023924,A,3403.358,N,11711.711,W,010.8,182.2,231298,013.6,E*67
$GPRMB,A,,,,,,,,,,,,V*71
$GPGGA,023924,3403.357,N,11711.711,W,1,03,2.4,407.6,M,-30.7,M,,*72
$GPGSA,A,3,,04,,,,09,,24,,,,,2.4,2.4,1.0*38
$GPGSV,2,1,08,02,22,109,37,04,66,107,32,05,30,310,32,07,41,045,00*79
$GPGSV,2,2,08,08,25,313,00,09,54,280,38,16,09,076,00,24,44,183,32*74
$PGRME,55.4,M,150.0,M,159.9,M*1A
$GPGLL,3403.355,N,11711.711,W,023925,A*30
$PGRMZ,1337,f,3*2D
$PGRMM,WGS 84*06
$GPBOD,,T,,M,,*47
$GPRTE,1,1,c,0,ZZZZZZ*2B
$GPWPL,3911.456,N,09634.757,W,ZZZZZZ*59
$GPRMC,023926,A,3403.352,N,11711.712,W,010.8,182.2,231298,013.6,E*6C
$GPRMB,A,,,,,,,,,,,,V*71
$GPGGA,023926,3403.351,N,11711.712,W,1,03,2.4,407.6,M,-30.7,M,,*75
$GPGSA,A,3,02,04,,,,09,,24,,,,,2.4,2.4,1.0*3A
$GPGSV,2,1,08,02,22,109,32,04,66,107,32,05,30,310,32,07,41,045,00*7C
$GPGSV,2,2,08,08,25,313,00,09,54,280,40,16,09,076,00,24,44,183,32*7B
$PGRME,51.2,M,77.1,M,92.5,M*17
$GPGLL,3403.345,N,11711.713,W,023927,A*31
$PGRMZ,1343,f,3*2E
$PGRMM,WGS 84*06
$GPBOD,,T,,M,,*47
$GPRTE,1,1,c,0,ZZZZZZ*2B
$GPWPL,3911.456,N,09634.757,W,ZZZZZZ*59
$GPRMC,023928,A,3403.351,N,11711.704,W,012.9,088.7,231298,013.6,E*6B
$GPRMB,A,,,,,,,,,,,,V*71
$GPGGA,023928,3403.351,N,11711.703,W,1,04,2.4,409.5,M,-30.7,M,,*71
$GPGSA,A,3,,04,,,,09,,24,,,,,2.4,2.4,1.0*38
$GPGSV,2,1,08,02,22,109,32,04,66,107,34,05,30,310,36,07,41,045,00*7E
$GPGSV,2,2,08,08,25,313,00,09,54,280,45,16,09,076,00,24,44,183,41*7A
$PGRME,55.4,M,150.0,M,159.9,M*1A
$GPGLL,3403.350,N,11711.700,W,023929,A*39
$PGRMZ,1344,f,3*29
$PGRMM,WGS 84*06
$GPBOD,,T,,M,,*47
$GPRTE,1,1,c,0,ZZZZZZ*2B
$GPWPL,3911.456,N,09634.757,W,ZZZZZZ*59
$GPRMC,023930,A,3403.350,N,11711.695,W,012.5,088.6,231298,013.6,E*67
$GPRMB,A,,,,,,,,,,,,V*71
$GPGGA,023930,3403.350,N,11711.694,W,1,03,2.4,409.6,M,-30.7,M,,*72
$GPGSA,A,3,02,04,,,,09,,24,,,,,3.9,2.2,3.3*31
$GPGSV,2,1,08,02,22,109,37,04,66,107,37,05,30,310,32,07,41,045,00*7C
$GPGSV,2,2,08,08,25,313,00,09,54,280,44,16,09,076,00,24,44,183,42*78
$PGRME,51.3,M,77.0,M,92.5,M*17
$GPGLL,3403.348,N,11711.693,W,023931,A*32
$PGRMZ,1349,f,3*24
$PGRMM,WGS 84*06
$GPBOD,,T,,M,,*47
$GPRTE,1,1,c,0,ZZZZZZ*2B
$GPWPL,3911.456,N,09634.757,W,ZZZZZZ*59
$GPRMC,023932,A,3403.346,N,11711.688,W,011.2,100.1,231298,013.6,E*6C
$GPRMB,A,,,,,,,,,,,,V*71
$GPGGA,023932,3403.346,N,11711.687,W,1,04,2.2,412.9,M,-30.7,M,,*71
$GPGSA,A,3,02,04,,,,09,,24,,,,,3.9,2.2,3.3*31
$GPGSV,2,1,08,02,22,109,38,04,66,107,45,05,30,310,39,07,41,045,00*7D
$GPGSV,2,2,08,08,25,313,00,09,54,280,45,16,09,076,00,24,44,183,42*79
$PGRME,51.3,M,77.0,M,92.5,M*17
$GPGLL,3403.347,N,11711.685,W,023933,A*38
$PGRMZ,1384,f,3*25
$PGRMM,WGS 84*06
$GPBOD,,T,,M,,*47
$GPRTE,1,1,c,0,ZZZZZZ*2B
$GPWPL,3911.456,N,09634.757,W,ZZZZZZ*59
$GPRMC,023934,A,3403.347,N,11711.679,W,011.4,095.7,231298,013.6,E*68
$GPRMB,A,,,,,,,,,,,,V*71
$GPGGA,023934,3403.347,N,11711.679,W,1,04,2.2,428.6,M,-30.7,M,,*71
$GPGSA,A,3,02,04,,,,09,,24,,,,,3.9,2.2,3.3*31
$GPGSV,2,1,08,02,22,109,32,04,66,107,47,05,30,310,42,07,41,045,00*79
$GPGSV,2,2,08,08,25,313,00,09,54,280,46,16,09,076,00,24,44,183,42*7A
$PGRME,51.3,M,77.0,M,92.5,M*17
$GPGLL,3403.347,N,11711.677,W,023935,A*33
$PGRMZ,1406,f,3*28
$PGRMM,WGS 84*06
$GPBOD,,T,,M,,*47
$GPRTE,1,1,c,0,ZZZZZZ*2B
$GPWPL,3911.456,N,09634.757,W,ZZZZZZ*59
$GPRMC,023936,A,3403.347,N,11711.671,W,011.5,092.1,231298,013.6,E*62
$GPRMB,A,,,,,,,,,,,,V*71
$GPGGA,023936,3403.347,N,11711.670,W,1,04,2.4,428.4,M,-30.7,M,,*7E
$GPGSA,A,3,,04,,,08,09,,24,,,,,2.4,2.4,1.0*30
$GPGSV,2,1,08,02,22,109,32,04,66,107,46,05,30,310,32,07,41,045,00*7F
$GPGSV,2,2,08,08,25,313,36,09,54,280,44,16,09,076,00,24,44,183,42*7D
$PGRME,53.0,M,90.9,M,105.2,M*2E
$GPGLL,3403.348,N,11711.668,W,023937,A*30
$PGRMZ,1382,f,3*23
$PGRMM,WGS 84*06
$GPBOD,,T,,M,,*47
$GPRTE,1,1,c,0,ZZZZZZ*2B
$GPWPL,3911.456,N,09634.757,W,ZZZZZZ*59
$GPRMC,023938,A,3403.349,N,11711.662,W,010.9,093.8,231298,013.6,E*65
$GPRMB,A,,,,,,,,,,,,V*71
$GPGGA,023938,3403.349,N,11711.662,W,1,04,2.3,409.2,M,-30.7,M,,*7F
$GPGSA,A,3,,04,,,08,09,,24,,,,,4.5,2.3,3.9*3B
$GPGSV,2,1,08,02,22,109,32,04,66,107,44,05,30,310,32,07,41,045,00*7D
$GPGSV,2,2,08,08,25,313,41,09,54,280,43,16,09,076,00,24,44,183,39*76
$PGRME,53.0,M,90.9,M,105.2,M*2E
$GPGLL,3403.352,N,11711.658,W,023939,A*36
$PGRMZ,1315,f,3*2D
$PGRMM,WGS 84*06
$GPBOD,,T,,M,,*47
$GPRTE,1,1,c,0,ZZZZZZ*2B
$GPWPL,3911.456,N,09634.757,W,ZZZZZZ*59
$GPRMC,023940,A,3403.348,N,11711.653,W,008.8,130.2,231298,013.6,E*63
$GPRMB,A,,,,,,,,,,,,V*71
$GPGGA,023940,3403.348,N,11711.653,W,1,04,2.3,394.3,M,-30.7,M,,*71
$GPGSA,A,3,,04,,,08,09,,24,,,,,4.5,2.3,3.9*3B
$GPGSV,2,1,08,02,22,109,38,04,66,107,44,05,30,310,41,07,41,045,00*73
$GPGSV,2,2,08,08,25,313,37,09,54,280,41,16,09,076,00,24,44,183,40*7B
$PGRME,53.0,M,90.9,M,105.2,M*2E
$GPGLL,3403.347,N,11711.652,W,023941,A*37
$PGRMZ,1293,f,3*22
$PGRMM,WGS 84*06
$GPBOD,,T,,M,,*47
$GPRTE,1,1,c,0,ZZZZZZ*2B
$GPWPL,3911.456,N,09634.757,W,ZZZZZZ*59
$GPRMC,023942,A,3403.344,N,11711.657,W,008.4,108.3,231298,013.6,E*6F
$GPRMB,A,,,,,,,,,,,,V*71
$GPGGA,023942,3403.344,N,11711.657,W,1,04,1.7,398.2,M,-30.7,M,,*71
$GPGSA,A,3,02,04,,,08,09,,24,,,,,2.9,1.7,2.3*3F
$GPGSV,2,1,08,02,22,109,37,04,66,107,47,05,30,310,32,07,41,045,00*7B
$GPGSV,2,2,08,08,25,313,41,09,54,280,42,16,09,076,00,24,44,183,32*7C
$PGRME,39.7,M,54.3,M,67.3,M*13
$GPGLL,3403.344,N,11711.664,W,023943,A*33
$PGRMZ,1324,f,3*2F
$PGRMM,WGS 84*06
$GPBOD,,T,,M,,*47
$GPRTE,1,1,c,0,ZZZZZZ*2B
$GPWPL,3911.456,N,09634.757,W,ZZZZZZ*59
$GPRMC,023944,A,3403.359,N,11711.654,W,007.7,072.3,231298,013.6,E*66
$GPRMB,A,,,,,,,,,,,,V*71
$GPGGA,023944,3403.359,N,11711.654,W,1,05,4.2,409.5,M,-30.7,M,,*71
$GPGSA,A,3,02,04,,,08,09,,24,,,,,5.0,4.2,2.7*35
$GPGSV,2,1,08,02,22,109,32,04,66,107,43,05,30,310,32,07,41,045,00*7A
$GPGSV,2,2,08,08,25,313,42,09,54,280,46,16,09,076,00,24,44,183,38*71
$PGRME,39.7,M,54.3,M,67.3,M*13
$GPGLL,3403.358,N,11711.656,W,023945,A*39
$PGRMZ,1346,f,3*2B
$PGRMM,WGS 84*06
$GPBOD,,T,,M,,*47
$GPRTE,1,1,c,0,ZZZZZZ*2B
$GPWPL,3911.456,N,09634.757,W,ZZZZZZ*59
$GPRMC,023946,A,3403.359,N,11711.646,W,013.2,040.1,231298,013.6,E*64
$GPRMB,A,,,,,,,,,,,,V*71
$GPGGA,023946,3403.359,N,11711.646,W,1,05,2.3,403.2,M,-30.7,M,,*7A
$GPGSA,A,3,,04,,,08,09,,24,,,,,4.5,2.3,3.9*3B
$GPGSV,2,1,08,02,22,109,32,04,66,107,44,05,30,310,42,07,41,045,00*7A
$GPGSV,2,2,08,08,25,313,41,09,54,280,44,16,09,076,00,24,44,183,37*7F
$PGRME,53.0,M,91.1,M,105.4,M*21
$GPGLL,3403.360,N,11711.644,W,023947,A*33
$PGRMZ,1323,f,3*28
$PGRMM,WGS 84*06
$GPBOD,,T,,M,,*47
$GPRTE,1,1,c,0,ZZZZZZ*2B
$GPWPL,3911.456,N,09634.757,W,ZZZZZZ*59
$GPRMC,023948,A,3403.368,N,11711.635,W,012.9,034.7,231298,013.6,E*63
$GPRMB,A,,,,,,,,,,,,V*71
$GPGGA,023948,3403.368,N,11711.635,W,1,04,2.3,393.5,M,-30.7,M,,*7A
$GPGSA,A,3,,04,,,08,09,,24,,,,,4.5,2.3,3.9*3B
$GPGSV,2,1,08,02,22,109,37,04,66,107,43,05,30,310,41,07,41,045,00*7B
$GPGSV,2,2,08,08,25,313,32,09,54,280,45,16,09,076,00,24,44,183,43*79
$PGRME,53.0,M,91.1,M,105.4,M*21
$GPGLL,3403.370,N,11711.633,W,023949,A*3C
$PGRMZ,1292,f,3*23
$PGRMM,WGS 84*06
$GPBOD,,T,,M,,*47
$GPRTE,1,1,c,0,ZZZZZZ*2B
$GPWPL,3911.456,N,09634.757,W,ZZZZZZ*59
$GPRMC,023950,A,3403.374,N,11711.628,W,034.9,022.2,231298,013.6,E*6D
$GPRMB,A,,,,,,,,,,,,V*71
$GPGGA,023950,3403.376,N,11711.628,W,1,04,2.2,415.5,M,-30.7,M,,*78
$GPGSA,A,3,02,04,,,08,09,,24,,,,,3.9,2.2,3.3*39
$GPGSV,2,1,08,02,22,110,32,04,66,107,45,05,30,310,44,07,41,045,00*75
$GPGSV,2,2,08,08,25,313,38,09,54,280,44,16,09,076,00,24,44,183,41*70
$PGRME,39.8,M,54.3,M,67.3,M*1C
$GPGLL,3403.367,N,11711.638,W,023951,A*38
$PGRMZ,1374,f,3*2A
$PGRMM,WGS 84*06
$GPBOD,,T,,M,,*47
$GPRTE,1,1,c,0,ZZZZZZ*2B
$GPWPL,3911.456,N,09634.757,W,ZZZZZZ*59
$GPRMC,023952,A,3403.372,N,11711.632,W,010.4,051.4,231298,013.6,E*6B
$GPRMB,A,,,,,,,,,,,,V*71
$GPGGA,023952,3403.373,N,11711.631,W,1,05,2.3,412.9,M,-30.7,M,,*7C
$GPGSA,A,3,,04,,,08,09,,24,,,,,4.5,2.3,3.9*3B
$GPGSV,2,1,08,02,22,110,32,04,66,107,43,05,30,310,45,07,41,045,00*72
$GPGSV,2,2,08,08,25,313,38,09,54,280,46,16,09,076,00,24,44,183,43*70
$PGRME,53.0,M,91.3,M,105.6,M*21
$GPGLL,3403.376,N,11711.627,W,023953,A*34
$PGRMZ,1338,f,3*22
$PGRMM,WGS 84*06
$GPBOD,,T,,M,,*47
$GPRTE,1,1,c,0,ZZZZZZ*2B
$GPWPL,3911.456,N,09634.757,W,ZZZZZZ*59
$GPRMC,023954,A,3403.380,N,11711.611,W,016.0,057.5,231298,013.6,E*64
$GPRMB,A,,,,,,,,,,,,V*71
$GPGGA,023954,3403.381,N,11711.610,W,1,04,2.3,402.4,M,-30.7,M,,*79
$GPGSA,A,3,,04,,,08,09,,24,,,,,4.5,2.3,3.9*3B
$GPGSV,2,1,08,02,22,110,32,04,66,107,45,05,30,310,44,07,41,045,00*75
$GPGSV,2,2,08,08,25,313,41,09,54,280,45,16,09,076,00,24,44,183,40*7E
$PGRME,53.0,M,91.3,M,105.6,M*21
$GPGLL,3403.382,N,11711.608,W,023955,A*34
$PGRMZ,1320,f,3*2B
$PGRMM,WGS 84*06
$GPBOD,,T,,M,,*47
$GPRTE,1,1,c,0,ZZZZZZ*2B
$GPWPL,3911.456,N,09634.757,W,ZZZZZZ*59
$GPRMC,023956,A,3403.385,N,11711.602,W,016.0,057.5,231298,013.6,E*61
$GPRMB,A,,,,,,,,,,,,V*71
$GPGGA,023956,3403.385,N,11711.601,W,1,04,2.3,402.2,M,-30.7,M,,*79
$GPGSA,A,3,,04,,,08,09,,,,,,,4.5,2.3,3.9*3D
$GPGSV,2,1,08,02,22,110,32,04,66,104,43,05,30,310,32,07,41,045,00*71
$GPGSV,2,2,08,08,25,313,38,09,54,280,45,16,09,076,00,24,44,183,40*70
$PGRME,82.1,M,150.0,M,171.0,M*16
$GPGLL,3403.388,N,11711.599,W,023957,A*37
$PGRMZ,1319,f,3*21
$PGRMM,WGS 84*06
$GPBOD,,T,,M,,*47
$GPRTE,1,1,c,0,ZZZZZZ*2B
$GPWPL,3911.456,N,09634.757,W,ZZZZZZ*59
$GPRMC,023958,A,3403.390,N,11711.596,W,013.0,050.4,231298,013.6,E*66
$GPRMB,A,,,,,,,,,,,,V*71
$GPGGA,023958,3403.391,N,11711.595,W,1,03,2.3,400.4,M,-30.7,M,,*7F
$GPGSA,A,3,,04,,,08,09,,24,,,,,4.5,2.3,3.9*3B
$GPGSV,2,1,08,02,22,110,32,04,66,104,44,05,30,310,32,07,41,045,00*76
$GPGSV,2,2,08,08,25,313,32,09,54,280,43,16,09,076,00,24,44,183,42*7E
$PGRME,53.0,M,91.5,M,105.7,M*26
$GPGLL,3403.392,N,11711.593,W,023959,A*38
$PGRMZ,1314,f,3*2C
$PGRMM,WGS 84*06
$GPBOD,,T,,M,,*47
$GPRTE,1,1,c,0,ZZZZZZ*2B
$GPWPL,3911.456,N,09634.757,W,ZZZZZZ*59
$GPRMC,024000,A,3403.391,N,11711.592,W,011.1,048.8,231298,013.6,E*66
$GPRMB,A,,,,,,,,,,,,V*71
$GPGGA,024001,3403.392,N,11711.591,W,1,04,2.4,400.3,M,-30.7,M,,*7D
$GPGSA,A,3,,04,,,,09,,24,,,,,2.4,2.4,1.0*38
$GPGSV,2,1,08,02,22,110,32,04,66,104,44,05,31,310,32,07,41,045,00*77
$GPGSV,2,2,08,08,25,313,32,09,54,280,42,16,09,076,00,24,44,183,39*73
$PGRME,55.4,M,150.0,M,159.9,M*1A
$GPGLL,3403.393,N,11711.590,W,024001,A*39
$PGRMZ,1313,f,3*2B
$PGRMM,WGS 84*06
$GPBOD,,T,,M,,*47
$GPRTE,1,1,c,0,ZZZZZZ*2B
$GPWPL,3911.456,N,09634.757,W,ZZZZZZ*59
$GPRMC,024002,A,3403.389,N,11711.591,W,004.3,048.3,231298,013.6,E*63
$GPRMB,A,,,,,,,,,,,,V*71
$GPGGA,024003,3403.389,N,11711.591,W,1,03,2.4,400.1,M,-30.7,M,,*70
$GPGSA,A,3,,04,,,,09,,24,,,,,2.4,2.4,1.0*38
$GPGSV,2,1,08,02,22,110,32,04,66,104,48,05,31,310,32,07,41,045,00*7B
$GPGSV,2,2,08,08,25,313,32,09,54,280,42,16,09,076,00,24,44,183,42*7F
$PGRME,55.4,M,150.0,M,159.9,M*1A
$GPGLL,3403.394,N,11711.592,W,024003,A*3E
$PGRMZ,1313,f,3*2B
$PGRMM,WGS 84*06
$GPBOD,,T,,M,,*47
$GPRTE,1,1,c,0,ZZZZZZ*2B
$GPWPL,3911.456,N,09634.757,W,ZZZZZZ*59
$GPRMC,024004,A,3403.397,N,11711.594,W,009.9,327.4,231298,013.6,E*65
$GPRMB,A,,,,,,,,,,,,V*71
$GPGGA,024005,3403.397,N,11711.595,W,1,03,2.4,400.0,M,-30.7,M,,*7C
$GPGSA,A,3,,04,,,,09,,24,,,,,2.4,2.4,1.0*38
$GPGSV,2,1,08,02,22,110,00,04,66,104,46,05,31,310,32,07,41,045,00*74
$GPGSV,2,2,08,08,25,313,32,09,54,280,40,16,09,076,00,24,44,183,38*70
$PGRME,55.4,M,150.0,M,159.9,M*1A
$GPGLL,3403.397,N,11711.599,W,024005,A*30
$PGRMZ,1312,f,3*2A
$PGRMM,WGS 84*06
$GPBOD,,T,,M,,*47
$GPRTE,1,1,c,0,ZZZZZZ*2B
$GPWPL,3911.456,N,09634.757,W,ZZZZZZ*59
$GPRMC,024006,A,3403.396,N,11711.603,W,011.3,308.2,231298,013.6,E*63
$GPRMB,A,,,,,,,,,,,,V*71
$GPGGA,024007,3403.396,N,11711.604,W,1,03,2.4,400.0,M,-30.7,M,,*74
$GPGSA,A,3,,04,,,,09,,24,,,,,2.4,2.4,1.0*38
$GPGSV,2,1,08,02,22,110,00,04,66,104,46,05,31,310,32,07,41,045,00*74
$GPGSV,2,2,08,08,25,313,32,09,54,280,46,16,09,076,00,24,44,183,39*77
$PGRME,55.4,M,150.0,M,159.9,M*1A
$GPGLL,3403.395,N,11711.606,W,024007,A*35
$PGRMZ,1312,f,3*2A
$PGRMM,WGS 84*06
$GPBOD,,T,,M,,*47
$GPRTE,1,1,c,0,ZZZZZZ*2B
$GPWPL,3911.456,N,09634.757,W,ZZZZZZ*59
$GPRMC,024008,A,3403.396,N,11711.613,W,016.1,268.7,231298,013.6,E*6B
$GPRMB,A,,,,,,,,,,,,V*71
$GPGGA,024009,3403.396,N,11711.614,W,1,03,2.4,400.0,M,-30.7,M,,*7B
$GPGSA,A,3,,04,,,,09,,24,,,,,2.4,2.4,1.0*38
$GPGSV,2,1,08,02,22,110,00,04,66,104,46,05,31,310,32,07,41,045,00*74
$GPGSV,2,2,08,08,25,313,32,09,54,280,48,16,09,076,00,24,44,183,45*72
$PGRME,55.4,M,150.0,M,159.9,M*1A
$GPGLL,3403.396,N,11711.616,W,024009,A*39
$PGRMZ,1312,f,3*2A
$PGRMM,WGS 84*06
$GPBOD,,T,,M,,*47
$GPRTE,1,1,c,0,ZZZZZZ*2B
$GPWPL,3911.456,N,09634.757,W,ZZZZZZ*59
$GPRMC,024010,A,3403.396,N,11711.623,W,014.0,274.2,231298,013.6,E*6A
$GPRMB,A,,,,,,,,,,,,V*71
$GPGGA,024011,3403.396,N,11711.624,W,1,03,2.4,399.9,M,-30.7,M,,*7F
$GPGSA,A,3,,04,,,,09,,24,,,,,2.4,2.4,1.0*38
$GPGSV,2,1,08,02,22,110,00,04,66,104,44,05,31,310,32,07,41,045,00*76
$GPGSV,2,2,08,08,25,313,32,09,54,280,47,16,09,076,00,24,44,183,45*7D
$PGRME,55.4,M,150.0,M,159.9,M*1A
$GPGLL,3403.395,N,11711.627,W,024011,A*31
$PGRMZ,1312,f,3*2A
$PGRMM,WGS 84*06
$GPBOD,,T,,M,,*47
$GPRTE,1,1,c,0,ZZZZZZ*2B
$GPWPL,3911.456,N,09634.757,W,ZZZZZZ*59
$GPRMC,024012,A,3403.394,N,11711.633,W,014.9,269.1,231298,013.6,E*6D
$GPRMB,A,,,,,,,,,,,,V*71
$GPGGA,024013,3403.394,N,11711.634,W,1,03,2.4,399.9,M,-30.7,M,,*7E
$GPGSA,A,3,,04,,,,09,,24,,,,,2.4,2.4,1.0*38
$GPGSV,2,1,08,02,22,110,00,04,66,104,45,05,31,310,32,07,41,045,00*77
$GPGSV,2,2,08,08,26,313,00,09,54,280,46,16,09,076,00,24,44,183,46*7D
$PGRME,55.4,M,150.0,M,159.9,M*1A
$GPGLL,3403.393,N,11711.636,W,024013,A*35
$PGRMZ,1312,f,3*2A
$PGRMM,WGS 84*06
$GPBOD,,T,,M,,*47
$GPRTE,1,1,c,0,ZZZZZZ*2B
$GPWPL,3911.456,N,09634.757,W,ZZZZZZ*59
$GPRMC,024014,A,3403.393,N,11711.643,W,015.5,264.3,231298,013.6,E*69
$GPRMB,A,,,,,,,,,,,,V*71
$GPGGA,024015,3403.393,N,11711.644,W,1,03,2.4,399.9,M,-30.7,M,,*78
$GPGSA,A,3,02,04,,,,09,,24,,,,,3.9,2.2,3.3*31
$GPGSV,2,1,08,02,22,110,41,04,66,104,46,05,31,310,32,07,41,045,00*71
$GPGSV,2,2,08,08,26,313,00,09,54,280,48,16,09,076,00,24,44,183,45*70
$PGRME,51.6,M,76.7,M,92.5,M*14
$GPGLL,3403.391,N,11711.648,W,024015,A*38
$PGRMZ,1340,f,3*2D
$PGRMM,WGS 84*06
$GPBOD,,T,,M,,*47
$GPRTE,1,1,c,0,ZZZZZZ*2B
$GPWPL,3911.456,N,09634.757,W,ZZZZZZ*59
$GPRMC,024016,A,3403.389,N,11711.654,W,014.0,271.0,231298,013.6,E*65
$GPRMB,A,,,,,,,,,,,,V*71
$GPGGA,024017,3403.389,N,11711.655,W,1,04,2.2,418.8,M,-30.7,M,,*7F
$GPGSA,A,3,02,04,,,,09,,24,,,,,3.9,2.2,3.3*31
$GPGSV,2,1,08,02,22,110,43,04,66,104,46,05,31,310,33,07,41,045,00*72
$GPGSV,2,2,08,08,26,313,00,09,55,279,47,16,09,076,00,24,44,183,41*7C
$PGRME,51.6,M,76.7,M,92.5,M*14
$GPGLL,3403.388,N,11711.657,W,024017,A*3C
$PGRMZ,1397,f,3*27
$PGRMM,WGS 84*06
$GPBOD,,T,,M,,*47
$GPRTE,1,1,c,0,ZZZZZZ*2B
$GPWPL,3911.456,N,09634.757,W,ZZZZZZ*59
$GPRMC,024018,A,3403.386,N,11711.663,W,006.1,266.0,231298,013.6,E*64
$GPRMB,A,,,,,,,,,,,,V*71
$GPGGA,024019,3403.386,N,11711.664,W,1,04,2.2,431.3,M,-30.7,M,,*7C
$GPGSA,A,3,02,04,,,,09,,24,,,,,3.9,2.2,3.3*31
$GPGSV,2,1,08,02,22,110,32,04,66,104,45,05,31,310,32,07,41,045,00*76
$GPGSV,2,2,08,08,26,313,00,09,55,279,46,16,09,076,00,24,44,183,43*7F
$PGRME,51.6,M,76.7,M,92.5,M*14
$GPGLL,3403.386,N,11711.665,W,024019,A*3D
$PGRMZ,1415,f,3*2A
$PGRMM,WGS 84*06
$GPBOD,,T,,M,,*47
$GPRTE,1,1,c,0,ZZZZZZ*2B
$GPWPL,3911.456,N,09634.757,W,ZZZZZZ*59
$GPRMC,024020,A,3403.384,N,11711.668,W,006.2,266.0,231298,013.6,E*65
$GPRMB,A,,,,,,,,,,,,V*71
$GPGGA,024021,3403.384,N,11711.668,W,1,04,2.2,436.0,M,-30.7,M,,*7D
$GPGSA,A,3,02,04,,,,09,,24,,,,,3.9,2.2,3.3*31
$GPGSV,2,1,08,02,22,110,40,04,66,104,44,05,31,310,32,07,41,045,00*72
$GPGSV,2,2,08,08,26,313,00,09,55,279,45,16,09,076,00,24,44,183,46*79
$PGRME,51.6,M,76.7,M,92.5,M*14
$GPGLL,3403.381,N,11711.670,W,024021,A*35
$PGRMZ,1440,f,3*2A
$PGRMM,WGS 84*06
$GPBOD,,T,,M,,*47
$GPRTE,1,1,c,0,ZZZZZZ*2B
$GPWPL,3911.456,N,09634.757,W,ZZZZZZ*59
$GPRMC,024022,A,3403.379,N,11711.674,W,007.3,262.7,231298,013.6,E*6B
$GPRMB,A,,,,,,,,,,,,V*71
$GPGGA,024023,3403.379,N,11711.675,W,1,04,2.2,441.5,M,-30.7,M,,*74
$GPGSA,A,3,02,04,,,,09,,24,,,,,3.9,2.2,3.3*31
$GPGSV,2,1,08,02,22,110,35,04,66,104,47,05,31,310,35,07,41,045,00*74
$GPGSV,2,2,08,08,26,313,00,09,55,279,38,16,09,076,00,24,44,183,46*73
$PGRME,51.6,M,76.7,M,92.5,M*14
$GPGLL,3403.374,N,11711.677,W,024023,A*3A
$PGRMZ,1459,f,3*22
$PGRMM,WGS 84*06
$GPBOD,,T,,M,,*47
$GPRTE,1,1,c,0,ZZZZZZ*2B
$GPWPL,3911.456,N,09634.757,W,ZZZZZZ*59
$GPRMC,024024,A,3403.372,N,11711.684,W,009.5,257.0,231298,013.6,E*60
$GPRMB,A,,,,,,,,,,,,V*71
$GPGGA,024025,3403.372,N,11711.685,W,1,04,2.2,448.2,M,-30.7,M,,*78
$GPGSA,A,3,02,04,,,,09,,24,,,,,3.9,2.2,3.3*31
$GPGSV,2,1,08,02,22,110,34,04,66,104,42,05,31,310,32,07,41,045,00*77
$GPGSV,2,2,08,08,26,313,00,09,55,279,41,16,09,076,00,24,44,183,46*7D
$PGRME,51.6,M,76.7,M,92.5,M*14
$GPGLL,3403.371,N,11711.686,W,024025,A*37
$PGRMZ,1471,f,3*28
$PGRMM,WGS 84*06
$GPBOD,,T,,M,,*47
$GPRTE,1,1,c,0,ZZZZZZ*2B
$GPWPL,3911.456,N,09634.757,W,ZZZZZZ*59
$GPRMC,024026,A,3403.371,N,11711.691,W,010.8,250.6,231298,013.6,E*61
$GPRMB,A,,,,,,,,,,,,V*71
$GPGGA,024027,3403.371,N,11711.691,W,1,04,2.2,449.2,M,-30.7,M,,*7D
$GPGSA,A,3,02,04,,,,09,,24,,,,,3.9,2.2,3.3*31
$GPGSV,2,1,08,02,22,110,32,04,66,104,45,05,31,310,32,07,41,045,00*76
$GPGSV,2,2,08,08,26,313,00,09,55,279,41,16,09,076,00,24,44,183,41*7A
$PGRME,51.7,M,76.7,M,92.5,M*15
$GPGLL,3403.369,N,11711.692,W,024027,A*39
$PGRMZ,1478,f,3*21
$PGRMM,WGS 84*06
$GPBOD,,T,,M,,*47
$GPRTE,1,1,c,0,ZZZZZZ*2B
$GPWPL,3911.456,N,09634.757,W,ZZZZZZ*59
$GPRMC,024028,A,3403.369,N,11711.695,W,009.6,263.4,231298,013.6,E*66
$GPRMB,A,,,,,,,,,,,,V*71
$GPGGA,024029,3403.369,N,11711.696,W,1,04,2.4,450.6,M,-30.7,M,,*77
$GPGSA,A,3,,,,,,09,,24,,,,,2.4,2.4,1.0*3C
$GPGSV,2,1,08,02,22,110,32,04,66,104,44,05,31,310,32,07,41,045,00*77
$GPGSV,2,2,08,08,26,313,00,09,55,279,46,16,09,076,00,24,44,183,41*7D
$PGRME,55.5,M,150.0,M,159.9,M*1B
$GPGLL,3403.368,N,11711.697,W,024029,A*33
$PGRMZ,1478,f,3*21
$PGRMM,WGS 84*06
$GPBOD,,T,,M,,*47
$GPRTE,1,1,c,0,ZZZZZZ*2B
$GPWPL,3911.456,N,09634.757,W,ZZZZZZ*59
$GPRMC,024030,A,3403.368,N,11711.701,W,009.6,263.4,231298,013.6,E*62
$GPRMB,A,,,,,,,,,,,,V*71
$GPGGA,024031,3403.368,N,11711.702,W,1,02,2.4,450.6,M,-30.7,M,,*75
$GPGSA,A,3,,,,,,09,,24,,,,,2.4,2.4,1.0*3C
$GPGSV,2,1,08,02,22,110,32,04,66,104,44,05,31,310,32,07,41,045,00*77
$GPGSV,2,2,08,08,26,313,00,09,55,279,46,16,09,076,00,24,44,183,41*7D
$PGRME,55.5,M,150.0,M,159.9,M*1B
$GPGLL,3403.368,N,11711.704,W,024031,A*31
$PGRMZ,1478,f,3*21
$PGRMM,WGS 84*06
$GPBOD,,T,,M,,*47
$GPRTE,1,1,c,0,ZZZZZZ*2B
$GPWPL,3911.456,N,09634.757,W,ZZZZZZ*59
$GPRMC,024032,A,3403.367,N,11711.708,W,009.6,263.4,231298,013.6,E*66
$GPRMB,A,,,,,,,,,,,,V*71
$GPGGA,024033,3403.367,N,11711.708,W,1,02,2.4,450.6,M,-30.7,M,,*72
$GPGSA,A,3,,04,,,,09,,24,,,,,2.4,2.4,1.0*38
$GPGSV,2,1,08,02,22,110,32,04,66,104,38,05,31,310,32,07,41,045,00*7C
$GPGSV,2,2,08,08,26,313,00,09,55,279,42,16,09,076,00,24,44,183,44*7C
$PGRME,55.5,M,150.0,M,159.9,M*1B
$GPGLL,3403.369,N,11711.713,W,024033,A*34
$PGRMZ,1478,f,3*21
$PGRMM,WGS 84*06
$GPBOD,,T,,M,,*47
$GPRTE,1,1,c,0,ZZZZZZ*2B
$GPWPL,3911.456,N,09634.757,W,ZZZZZZ*59
$GPRMC,024034,A,3403.371,N,11711.721,W,011.8,281.5,231298,013.6,E*66
$GPRMB,A,,,,,,,,,,,,V*71
$GPGGA,024035,3403.371,N,11711.721,W,1,03,2.4,450.6,M,-30.7,M,,*79
$GPGSA,A,3,,04,,,,09,,24,,,,,2.4,2.4,1.0*38
$GPGSV,2,1,08,02,22,110,32,04,66,104,43,05,31,310,32,07,41,045,00*70
$GPGSV,2,2,08,08,26,313,00,09,55,279,43,16,09,076,00,24,44,183,42*7B
$PGRME,55.5,M,150.0,M,159.9,M*1B
$GPGLL,3403.375,N,11711.719,W,024035,A*35
$PGRMZ,1478,f,3*21
$PGRMM,WGS 84*06
$GPBOD,,T,,M,,*47
$GPRTE,1,1,c,0,ZZZZZZ*2B
$GPWPL,3911.456,N,09634.757,W,ZZZZZZ*59
$GPRMC,024036,A,3403.377,N,11711.720,W,007.7,267.7,231298,013.6,E*61
$GPRMB,A,,,,,,,,,,,,V*71
$GPGGA,024037,3403.377,N,11711.721,W,1,03,2.4,450.6,M,-30.7,M,,*7D
$GPGSA,A,3,02,04,,,,09,,24,,,,,2.4,2.4,1.0*3A
$GPGSV,2,1,08,02,22,110,41,04,66,104,38,05,31,310,32,07,41,045,00*78
$GPGSV,2,2,08,08,26,313,00,09,55,279,45,16,09,076,00,24,44,183,42*7D
$PGRME,51.8,M,76.6,M,92.5,M*1B
$GPGLL,3403.374,N,11711.726,W,024037,A*3A
$PGRMZ,1479,f,3*20
$PGRMM,WGS 84*06
$GPBOD,,T,,M,,*47
$GPRTE,1,1,c,0,ZZZZZZ*2B
$GPWPL,3911.456,N,09634.757,W,ZZZZZZ*59
$GPRMC,024038,A,3403.374,N,11711.731,W,007.8,274.8,231298,013.6,E*6E
$GPRMB,A,,,,,,,,,,,,V*71
$GPGGA,024039,3403.374,N,11711.732,W,1,04,2.2,451.2,M,-30.7,M,,*76
$GPGSA,A,3,02,04,,,,09,,24,,,,,3.9,2.2,3.3*31
$GPGSV,2,1,08,02,22,110,32,04,66,104,44,05,31,310,32,07,41,045,00*77
$GPGSV,2,2,08,08,26,313,00,09,55,279,46,16,09,076,00,24,44,183,42*7E
$PGRME,51.8,M,76.6,M,92.5,M*1B
$GPGLL,3403.374,N,11711.734,W,024039,A*37
$PGRMZ,1482,f,3*24
$PGRMM,WGS 84*06
$GPBOD,,T,,M,,*47
$GPRTE,1,1,c,0,ZZZZZZ*2B
$GPWPL,3911.456,N,09634.757,W,ZZZZZZ*59
$GPRMC,024040,A,3403.377,N,11711.734,W,003.2,245.6,231298,013.6,E*65
$GPRMB,A,,,,,,,,,,,,V*71
$GPGGA,024041,3403.377,N,11711.734,W,1,04,2.4,451.6,M,-30.7,M,,*7E
$GPGSA,A,3,,04,,,,09,,24,,,,,2.4,2.4,1.0*38
$GPGSV,2,1,08,02,22,110,32,04,66,104,43,05,31,310,32,07,41,045,00*70
$GPGSV,2,2,08,08,26,313,00,09,55,279,46,16,09,076,00,24,44,183,42*7E
$PGRME,55.5,M,150.0,M,159.9,M*1B
$GPGLL,3403.381,N,11711.731,W,024041,A*37
$PGRMZ,1482,f,3*24
$PGRMM,WGS 84*06
$GPBOD,,T,,M,,*47
$GPRTE,1,1,c,0,ZZZZZZ*2B
$GPWPL,3911.456,N,09634.757,W,ZZZZZZ*59
$GPRMC,024042,A,3403.381,N,11711.731,W,001.5,245.6,231298,013.6,E*6E
$GPRMB,A,,,,,,,,,,,,V*71
$GPGGA,024043,3403.381,N,11711.731,W,1,03,2.4,451.6,M,-30.7,M,,*77
$GPGSA,A,3,02,04,,,,09,,24,,,,,3.9,2.2,3.3*31
$GPGSV,2,1,08,02,22,110,37,04,66,104,43,05,31,310,42,07,41,045,00*72
$GPGSV,2,2,08,08,26,313,00,09,55,279,45,16,09,076,00,24,44,183,40*7F
$PGRME,51.9,M,76.6,M,92.5,M*1A
$GPGLL,3403.382,N,11711.732,W,024043,A*35
$PGRMZ,1486,f,3*20
$PGRMM,WGS 84*06
$GPBOD,,T,,M,,*47
$GPRTE,1,1,c,0,ZZZZZZ*2B
$GPWPL,3911.456,N,09634.757,W,ZZZZZZ*59
$GPRMC,024044,A,3403.379,N,11711.734,W,001.2,245.6,231298,013.6,E*6D
$GPRMB,A,,,,,,,,,,,,V*71
$GPGGA,024045,3403.379,N,11711.734,W,1,04,2.2,453.2,M,-30.7,M,,*74
$GPGSA,A,3,02,04,,,,09,,24,,,,,3.9,2.2,3.3*31
$GPGSV,2,1,08,02,22,110,38,04,66,104,43,05,31,310,42,07,41,045,00*7D
$GPGSV,2,2,08,08,26,313,00,09,55,279,45,16,09,076,00,24,44,183,41*7E
$PGRME,51.9,M,76.6,M,92.5,M*1A
$GPGLL,3403.378,N,11711.735,W,024045,A*31
$PGRMZ,1489,f,3*2F
$PGRMM,WGS 84*06
$GPBOD,,T,,M,,*47
$GPRTE,1,1,c,0,ZZZZZZ*2B
$GPWPL,3911.456,N,09634.757,W,ZZZZZZ*59
$GPRMC,024046,A,3403.380,N,11711.735,W,001.9,245.6,231298,013.6,E*63
$GPRMB,A,,,,,,,,,,,,V*71
$GPGGA,024047,3403.380,N,11711.735,W,1,04,2.4,453.7,M,-30.7,M,,*72
$GPGSA,A,3,,04,,,,09,,24,,,,,2.4,2.4,1.0*38
$GPGSV,2,1,08,02,22,110,32,04,66,104,43,05,31,310,42,07,41,045,00*77
$GPGSV,2,2,08,08,26,313,00,09,55,279,44,16,09,076,00,24,44,183,40*7E
$PGRME,55.5,M,150.0,M,159.9,M*1B
$GPGLL,3403.380,N,11711.735,W,024047,A*34
$PGRMZ,1489,f,3*2F
$PGRMM,WGS 84*06
$GPBOD,,T,,M,,*47
$GPRTE,1,1,c,0,ZZZZZZ*2B
$GPWPL,3911.456,N,09634.757,W,ZZZZZZ*59
$GPRMC,024048,A,3403.383,N,11711.734,W,003.4,325.3,231298,013.6,E*62
$GPRMB,A,,,,,,,,,,,,V*71
$GPGGA,024049,3403.383,N,11711.734,W,1,03,2.4,453.7,M,-30.7,M,,*79
$GPGSA,A,3,,04,,,,09,,24,,,,,2.4,2.4,1.0*38
$GPGSV,2,1,08,02,22,110,32,04,66,104,43,05,31,310,32,07,41,045,00*70
$GPGSV,2,2,08,08,26,313,00,09,55,279,44,16,09,076,00,24,44,183,44*7A
$PGRME,55.5,M,150.0,M,159.9,M*1B
$GPGLL,3403.384,N,11711.735,W,024049,A*3E
$PGRMZ,1488,f,3*2E
$PGRMM,WGS 84*06
$GPBOD,,T,,M,,*47
$GPRTE,1,1,c,0,ZZZZZZ*2B
$GPWPL,3911.456,N,09634.757,W,ZZZZZZ*59
$GPRMC,024050,A,3403.385,N,11711.735,W,003.4,325.3,231298,013.6,E*6C
$GPRMB,A,,,,,,,,,,,,V*71
$GPGGA,024051,3403.385,N,11711.736,W,1,03,2.4,453.6,M,-30.7,M,,*75
$GPGSA,A,3,,04,,,,09,,24,,,,,2.4,2.4,1.0*38
$GPGSV,2,1,08,02,22,110,32,04,66,104,47,05,31,310,32,07,41,045,00*74
$GPGSV,2,2,08,08,26,313,00,09,55,279,44,16,09,076,00,24,44,183,43*7D
$PGRME,55.5,M,150.0,M,159.9,M*1B
$GPGLL,3403.385,N,11711.736,W,024051,A*35
$PGRMZ,1488,f,3*2E
$PGRMM,WGS 84*06
$GPBOD,,T,,M,,*47
$GPRTE,1,1,c,0,ZZZZZZ*2B
$GPWPL,3911.456,N,09634.757,W,ZZZZZZ*59
$GPRMC,024052,A,3403.389,N,11711.736,W,013.3,357.2,231298,013.6,E*63
$GPRMB,A,,,,,,,,,,,,V*71
$GPGGA,024053,3403.390,N,11711.736,W,1,03,2.4,453.6,M,-30.7,M,,*73
$GPGSA,A,3,,04,,,,09,,24,,,,,2.4,2.4,1.0*38
$GPGSV,2,1,08,02,22,110,32,04,66,104,46,05,31,310,32,07,41,045,00*75
$GPGSV,2,2,08,08,26,313,00,09,55,279,45,16,09,076,00,24,44,183,43*7C
$PGRME,55.5,M,150.0,M,159.9,M*1B
$GPGLL,3403.395,N,11711.738,W,024053,A*38
$PGRMZ,1488,f,3*2E
$PGRMM,WGS 84*06
$GPBOD,,T,,M,,*47
$GPRTE,1,1,c,0,ZZZZZZ*2B
$GPWPL,3911.456,N,09634.757,W,ZZZZZZ*59
$GPRMC,024054,A,3403.403,N,11711.740,W,019.8,358.7,231298,013.6,E*6A
$GPRMB,A,,,,,,,,,,,,V*71
$GPGGA,024055,3403.405,N,11711.740,W,1,03,2.4,453.6,M,-30.7,M,,*7F
$GPGSA,A,3,,04,,,,09,,24,,,,,2.4,2.4,1.0*38
$GPGSV,2,1,08,02,22,110,32,04,66,104,46,05,31,310,42,07,41,045,00*72
$GPGSV,2,2,08,08,26,313,00,09,55,279,45,16,09,076,00,24,44,183,41*7E
$PGRME,55.5,M,150.0,M,159.9,M*1B
$GPGLL,3403.407,N,11711.740,W,024055,A*3D
$PGRMZ,1488,f,3*2E
$PGRMM,WGS 84*06
$GPBOD,,T,,M,,*47
$GPRTE,1,1,c,0,ZZZZZZ*2B
$GPWPL,3911.456,N,09634.757,W,ZZZZZZ*59
$GPRMC,024056,A,3403.414,N,11711.741,W,019.8,358.7,231298,013.6,E*6F
$GPRMB,A,,,,,,,,,,,,V*71
$GPGGA,024057,3403.415,N,11711.741,W,1,03,2.4,453.6,M,-30.7,M,,*7D
$GPGSA,A,3,,,,,08,,,,,,,,2.4,2.4,1.0*3B
$GPGSV,2,1,08,02,22,110,32,04,66,104,46,05,31,310,43,07,41,045,00*73
$GPGSV,2,2,08,08,26,313,40,09,55,279,45,16,09,076,00,24,44,183,41*7A
$PGRME,55.5,M,150.0,M,159.9,M*1B
$GPGLL,3403.418,N,11711.741,W,024057,A*30
$PGRMZ,1488,f,3*2E
$PGRMM,WGS 84*06
$GPBOD,,T,,M,,*47
$GPRTE,1,1,c,0,ZZZZZZ*2B
$GPWPL,3911.456,N,09634.757,W,ZZZZZZ*59
$GPRMC,024058,A,3403.430,N,11711.741,W,021.6,354.5,231298,013.6,E*6C
$GPRMB,A,,,,,,,,,,,,V*71
$GPGGA,024059,3403.431,N,11711.741,W,1,01,2.3,453.0,M,-30.7,M,,*76
$GPGSA,A,3,,04,,,08,09,,24,,,,,4.6,2.3,4.0*36
$GPGSV,2,1,08,02,22,110,32,04,66,104,45,05,31,310,44,07,41,045,00*77
$GPGSV,2,2,08,08,26,313,40,09,55,279,45,16,09,076,00,24,44,183,44*7F
$PGRME,52.9,M,93.2,M,107.2,M*2C
$GPGLL,3403.434,N,11711.741,W,024059,A*30
$PGRMZ,1487,f,3*21
$PGRMM,WGS 84*06
$GPBOD,,T,,M,,*47
$GPRTE,1,1,c,0,ZZZZZZ*2B
$GPWPL,3911.456,N,09634.757,W,ZZZZZZ*59
$GPRMC,024100,A,3403.448,N,11711.740,W,022.0,356.9,231298,013.6,E*65
$GPRMB,A,,,,,,,,,,,,V*71
$GPGGA,024101,3403.449,N,11711.740,W,1,04,2.3,443.2,M,-30.7,M,,*72
$GPGSA,A,3,,04,,,08,09,,24,,,,,4.6,2.3,4.0*36
$GPGSV,2,1,08,02,22,110,32,04,66,104,45,05,31,310,44,07,41,045,00*77
$GPGSV,2,2,08,08,26,313,40,09,55,279,46,16,09,076,00,24,44,183,44*7C
$PGRME,52.9,M,93.2,M,107.2,M*2C
$GPGLL,3403.452,N,11711.740,W,024101,A*3D
$PGRMZ,1454,f,3*2F
$PGRMM,WGS 84*06
$GPBOD,,T,,M,,*47
$GPRTE,1,1,c,0,ZZZZZZ*2B
$GPWPL,3911.456,N,09634.757,W,ZZZZZZ*59
$GPRMC,024102,A,3403.479,N,11711.736,W,037.1,004.6,231298,013.6,E*6A
$GPRMB,A,,,,,,,,,,,,V*71
$GPGGA,024103,3403.481,N,11711.736,W,1,04,3.4,443.0,M,-30.7,M,,*71
$GPGSA,A,3,,04,,,,09,,,,,,,3.4,3.4,1.0*3E
$GPGSV,2,1,08,02,22,110,32,04,66,104,45,05,31,310,44,07,41,045,00*77
$GPGSV,2,2,08,08,26,313,40,09,55,279,46,16,09,076,00,24,44,183,44*7C
$PGRME,81.0,M,150.0,M,170.5,M*10
$GPGLL,3403.486,N,11711.736,W,024103,A*37
$PGRMZ,1453,f,3*28
$PGRMM,WGS 84*06
$GPBOD,,T,,M,,*47
$GPRTE,1,1,c,0,ZZZZZZ*2B
$GPWPL,3911.456,N,09634.757,W,ZZZZZZ*59
$GPRMC,024104,A,3403.499,N,11711.734,W,037.1,004.6,231298,013.6,E*60
$GPRMB,A,,,,,,,,,,,,V*71
$GPGGA,024105,3403.501,N,11711.734,W,1,02,3.4,442.8,M,-30.7,M,,*73
$GPGSA,A,3,,,,,,,,,,,,,3.4,3.4,1.0*33
$GPGSV,2,1,08,02,22,110,32,04,66,104,45,05,31,310,44,07,41,045,00*77
$GPGSV,2,2,08,08,26,313,40,09,55,279,46,16,09,076,00,24,44,183,44*7C
$PGRME,81.0,M,150.0,M,170.5,M*10
$GPGLL,3403.506,N,11711.734,W,024105,A*3A
$PGRMZ,1452,f,3*29
$PGRMM,WGS 84*06
$GPBOD,,T,,M,,*47
$GPRTE,1,1,c,0,ZZZZZZ*2B
$GPWPL,3911.456,N,09634.757,W,ZZZZZZ*59
$GPRMC,024106,A,3403.520,N,11711.732,W,037.1,004.6,231298,013.6,E*67
$GPRMB,A,,,,,,,,,,,,V*71
$GPGGA,024107,3403.522,N,11711.732,W,1,00,3.4,442.6,M,-30.7,M,,*7A
$GPGSA,A,3,,,,,08,09,,24,,,,,3.4,3.4,1.0*34
$GPGSV,2,1,08,02,22,110,32,04,66,104,43,05,31,310,42,07,41,045,00*77
$GPGSV,2,2,08,08,26,313,38,09,55,279,46,16,09,076,00,24,44,183,38*78
$PGRME,205.9,M,150.0,M,254.8,M*2F
$GPGLL,3403.532,N,11711.715,W,024107,A*3C
$PGRMZ,1452,f,3*29
$PGRMM,WGS 84*06
$GPBOD,,T,,M,,*47
$GPRTE,1,1,c,0,ZZZZZZ*2B
$GPWPL,3911.456,N,09634.757,W,ZZZZZZ*59
$GPRMC,024108,A,3403.544,N,11711.714,W,023.1,324.1,231298,013.6,E*6C
$GPRMB,A,,,,,,,,,,,,V*71
$GPGGA,024109,3403.545,N,11711.715,W,1,03,8.8,442.5,M,-30.7,M,,*77
$GPGSA,A,3,,,,,08,09,,24,,,,,8.8,8.8,1.0*34
$GPGSV,2,1,08,02,22,110,32,04,66,104,42,05,31,310,42,07,41,045,00*76
$GPGSV,2,2,08,08,26,313,43,09,55,279,47,16,09,076,00,24,44,183,38*75
$PGRME,205.9,M,150.0,M,254.8,M*2F
$GPGLL,3403.548,N,11711.717,W,024109,A*3D
$PGRMZ,1452,f,3*29
$PGRMM,WGS 84*06
$GPBOD,,T,,M,,*47
$GPRTE,1,1,c,0,ZZZZZZ*2B
$GPWPL,3911.456,N,09634.757,W,ZZZZZZ*59
$GPRMC,024110,A,3403.553,N,11711.727,W,024.0,306.7,231298,013.6,E*63
$GPRMB,A,,,,,,,,,,,,V*71
$GPGGA,024111,3403.554,N,11711.728,W,1,03,8.8,442.5,M,-30.7,M,,*70
$GPGSA,A,3,,04,,,08,09,,24,,,,,8.8,8.8,1.0*30
$GPGSV,2,1,08,02,22,110,00,04,66,104,46,05,31,310,42,07,41,045,00*73
$GPGSV,2,2,08,08,26,313,43,09,55,279,46,16,09,076,00,24,44,183,41*7A
$PGRME,52.9,M,93.6,M,107.5,M*2F
$GPGLL,3403.549,N,11711.732,W,024111,A*32
$PGRMZ,1441,f,3*2B
$PGRMM,WGS 84*06
$GPBOD,,T,,M,,*47
$GPRTE,1,1,c,0,ZZZZZZ*2B
$GPWPL,3911.456,N,09634.757,W,ZZZZZZ*59
$GPRMC,024112,A,3403.551,N,11711.735,W,017.4,356.7,231298,013.6,E*61
$GPRMB,A,,,,,,,,,,,,V*71
$GPGGA,024113,3403.552,N,11711.736,W,1,04,2.2,436.6,M,-30.7,M,,*7C
$GPGSA,A,3,,04,,,08,09,,24,,,,,4.6,2.2,4.0*37
$GPGSV,2,1,08,02,22,110,00,04,66,104,46,05,31,310,44,07,41,045,00*75
$GPGSV,2,2,08,08,26,313,43,09,55,279,44,16,09,076,00,24,45,183,43*7B
$PGRME,52.9,M,93.6,M,107.5,M*2F
$GPGLL,3403.549,N,11711.735,W,024113,A*37
$PGRMZ,1421,f,3*2D
$PGRMM,WGS 84*06
$GPBOD,,T,,M,,*47
$GPRTE,1,1,c,0,ZZZZZZ*2B
$GPWPL,3911.456,N,09634.757,W,ZZZZZZ*59
$GPRMC,024114,A,3403.550,N,11711.734,W,012.5,011.5,231298,013.6,E*61
$GPRMB,A,,,,,,,,,,,,V*71
$GPGGA,024115,3403.551,N,11711.734,W,1,04,2.2,424.8,M,-30.7,M,,*76
$GPGSA,A,3,,04,,,08,09,,24,,,,,4.6,2.2,4.0*37
$GPGSV,2,1,08,02,22,110,00,04,66,104,46,05,31,310,44,07,41,045,00*75
$GPGSV,2,2,08,08,26,313,40,09,55,279,47,16,09,076,00,24,45,183,43*7B
$PGRME,52.9,M,93.6,M,107.5,M*2F
$GPGLL,3403.548,N,11711.736,W,024115,A*33
$PGRMZ,1381,f,3*20
$PGRMM,WGS 84*06
$GPBOD,,T,,M,,*47
$GPRTE,1,1,c,0,ZZZZZZ*2B
$GPWPL,3911.456,N,09634.757,W,ZZZZZZ*59
$GPRMC,024116,A,3403.548,N,11711.739,W,004.6,331.4,231298,013.6,E*63
$GPRMB,A,,,,,,,,,,,,V*71
$GPGGA,024117,3403.548,N,11711.739,W,1,04,2.2,418.7,M,-30.7,M,,*71
$GPGSA,A,3,,04,,,08,09,,24,,,,,4.6,2.2,4.0*37
$GPGSV,2,1,08,02,22,110,00,04,66,104,47,05,31,310,43,07,41,045,00*73
$GPGSV,2,2,08,08,26,313,43,09,55,279,47,16,09,076,00,24,45,183,41*7A
$PGRME,52.9,M,93.6,M,107.5,M*2F
$GPGLL,3403.549,N,11711.739,W,024117,A*3F
$PGRMZ,1359,f,3*25
$PGRMM,WGS 84*06
$GPBOD,,T,,M,,*47
$GPRTE,1,1,c,0,ZZZZZZ*2B
$GPWPL,3911.456,N,09634.757,W,ZZZZZZ*59
$GPRMC,024118,A,3403.547,N,11711.737,W,000.0,331.4,231298,013.6,E*6E
$GPRMB,A,,,,,,,,,,,,V*71
$GPGGA,024119,3403.547,N,11711.737,W,1,04,2.2,413.9,M,-30.7,M,,*7B
$GPGSA,A,3,,04,,,08,09,,24,,,,,4.6,2.2,4.0*37
$GPGSV,2,1,08,02,22,110,00,04,66,104,46,05,31,310,43,07,41,045,00*72
$GPGSV,2,2,08,08,26,313,42,09,55,279,45,16,09,076,00,24,45,183,42*7A
$PGRME,52.9,M,93.6,M,107.5,M*2F
$GPGLL,3403.547,N,11711.737,W,024119,A*31
$PGRMZ,1356,f,3*2A
$PGRMM,WGS 84*06
$GPBOD,,T,,M,,*47
$GPRTE,1,1,c,0,ZZZZZZ*2B
$GPWPL,3911.456,N,09634.757,W,ZZZZZZ*59
$GPRMC,024120,A,3403.546,N,11711.739,W,012.8,354.7,231298,013.6,E*61
$GPRMB,A,,,,,,,,,,,,V*71
$GPGGA,024121,3403.546,N,11711.739,W,1,04,2.2,412.2,M,-30.7,M,,*75
$GPGSA,A,3,,04,,,08,09,,24,,,,,4.6,2.2,4.0*37
$GPGSV,2,1,08,02,22,110,00,04,66,104,47,05,31,310,45,07,41,045,00*75
$GPGSV,2,2,08,08,26,313,41,09,55,279,47,16,09,076,00,24,45,183,41*78
$PGRME,52.9,M,93.9,M,107.7,M*22
$GPGLL,3403.545,N,11711.742,W,024121,A*3A
$PGRMZ,1348,f,3*25
$PGRMM,WGS 84*06
$GPBOD,,T,,M,,*47
$GPRTE,1,1,c,0,ZZZZZZ*2B
$GPWPL,3911.456,N,09634.757,W,ZZZZZZ*59
$GPRMC,024122,A,3403.547,N,11711.745,W,011.7,332.4,231298,013.6,E*66
$GPRMB,A,,,,,,,,,,,,V*71
$GPGGA,024123,3403.548,N,11711.745,W,1,04,2.2,410.1,M,-30.7,M,,*73
$GPGSA,A,3,02,04,,,08,,,,,,,,4.6,2.2,4.0*3A
$GPGSV,2,1,08,02,22,110,43,04,66,104,44,05,31,310,32,07,41,045,00*71
$GPGSV,2,2,08,08,26,313,40,09,55,279,47,16,09,076,00,24,45,183,41*79
$PGRME,52.9,M,93.9,M,107.7,M*22
$GPGLL,3403.549,N,11711.746,W,024123,A*30
$PGRMZ,1346,f,3*2B
$PGRMM,WGS 84*06
$GPBOD,,T,,M,,*47
$GPRTE,1,1,c,0,ZZZZZZ*2B
$GPWPL,3911.456,N,09634.757,W,ZZZZZZ*59
$GPRMC,024124,A,3403.556,N,11711.762,W,020.1,294.3,231298,013.6,E*6B
$GPRMB,A,,,,,,,,,,,,V*71
$GPGGA,024125,3403.556,N,11711.763,W,1,03,1.7,412.8,M,-30.7,M,,*74
$GPGSA,A,3,02,04,,,08,09,,24,,,,,2.9,1.7,2.3*3F
$GPGSV,2,1,08,02,22,110,39,04,66,104,46,05,31,310,39,07,41,045,00*75
$GPGSV,2,2,08,08,26,313,32,09,55,279,45,16,09,076,00,24,45,183,44*7B
$PGRME,40.1,M,54.0,M,67.2,M*19
$GPGLL,3403.557,N,11711.766,W,024125,A*3B
$PGRMZ,1355,f,3*29
$PGRMM,WGS 84*06
$GPBOD,,T,,M,,*47
$GPRTE,1,1,c,0,ZZZZZZ*2B
$GPWPL,3911.456,N,09634.757,W,ZZZZZZ*59
$GPRMC,024126,A,3403.565,N,11711.782,W,020.3,294.6,231298,013.6,E*60
$GPRMB,A,,,,,,,,,,,,V*71
$GPGGA,024127,3403.565,N,11711.784,W,1,05,3.4,413.2,M,-30.7,M,,*73
$GPGSA,A,3,02,04,,,,,,24,,,,,3.4,3.4,1.0*33
$GPGSV,2,1,08,02,22,110,39,04,66,104,46,05,31,310,42,07,41,045,00*79
$GPGSV,2,2,08,08,26,313,32,09,55,279,45,16,09,076,00,24,45,183,44*7B
$PGRME,78.8,M,150.0,M,169.5,M*16
$GPGLL,3403.566,N,11711.786,W,024127,A*35
$PGRMZ,1356,f,3*2A
$PGRMM,WGS 84*06
$GPBOD,,T,,M,,*47
$GPRTE,1,1,c,0,ZZZZZZ*2B
$GPWPL,3911.456,N,09634.757,W,ZZZZZZ*59
$GPRMC,024128,A,3403.569,N,11711.794,W,020.3,294.6,231298,013.6,E*65
$GPRMB,A,,,,,,,,,,,,V*71
$GPGGA,024129,3403.570,N,11711.796,W,1,03,3.4,413.5,M,-30.7,M,,*7B
$GPGSA,A,3,,,,,,,,,,,,,3.4,3.4,1.0*33
$GPGSV,2,1,08,02,22,110,39,04,66,104,46,05,31,310,42,07,41,045,00*79
$GPGSV,2,2,08,08,26,313,32,09,55,279,45,16,09,076,00,24,45,183,44*7B
$PGRME,78.8,M,150.0,M,169.5,M*16
$GPGLL,3403.571,N,11711.799,W,024129,A*33
$PGRMZ,1357,f,3*2B
$PGRMM,WGS 84*06
$GPBOD,,T,,M,,*47
$GPRTE,1,1,c,0,ZZZZZZ*2B
$GPWPL,3911.456,N,09634.757,W,ZZZZZZ*59
$GPRMC,024130,A,3403.574,N,11711.807,W,020.3,294.6,231298,013.6,E*65
$GPRMB,A,,,,,,,,,,,,V*71
$GPGGA,024131,3403.575,N,11711.808,W,1,00,3.4,413.7,M,-30.7,M,,*7E
$GPGSA,A,3,02,04,,,08,09,,24,,,,,3.4,3.4,1.0*32
$GPGSV,2,1,08,02,22,110,39,04,66,104,46,05,31,310,41,07,41,045,00*7A
$GPGSV,2,2,08,08,26,313,39,09,55,279,46,16,09,076,00,24,45,183,45*72
$PGRME,40.1,M,53.9,M,67.2,M*17
$GPGLL,3403.576,N,11711.825,W,024131,A*35
$PGRMZ,1363,f,3*2C
$PGRMM,WGS 84*06
$GPBOD,,T,,M,,*47
$GPRTE,1,1,c,0,ZZZZZZ*2B
$GPWPL,3911.456,N,09634.757,W,ZZZZZZ*59
$GPRMC,024132,A,3403.581,N,11711.844,W,035.5,288.9,231298,013.6,E*6A
$GPRMB,A,,,,,,,,,,,,V*71
$GPGGA,024133,3403.582,N,11711.846,W,1,05,1.7,415.8,M,-30.7,M,,*73
$GPGSA,A,3,02,04,,,08,09,,24,,,,,2.9,1.7,2.3*3F
$GPGSV,2,1,08,02,22,110,41,04,66,104,46,05,31,310,41,07,41,045,00*75
$GPGSV,2,2,08,08,26,313,39,09,55,279,46,16,09,076,00,24,45,183,42*75
$PGRME,40.1,M,53.9,M,67.2,M*17
$GPGLL,3403.582,N,11711.854,W,024133,A*3A
$PGRMZ,1366,f,3*29
$PGRMM,WGS 84*06
$GPBOD,,T,,M,,*47
$GPRTE,1,1,c,0,ZZZZZZ*2B
$GPWPL,3911.456,N,09634.757,W,ZZZZZZ*59
$GPRMC,024134,A,3403.587,N,11711.871,W,036.5,286.1,231298,013.6,E*69
$GPRMB,A,,,,,,,,,,,,V*71
$GPGGA,024135,3403.588,N,11711.873,W,1,05,1.7,416.8,M,-30.7,M,,*7A
$GPGSA,A,3,02,04,,,08,09,,24,,,,,2.9,1.7,2.3*3F
$GPGSV,2,1,08,02,22,110,40,04,66,104,46,05,31,310,41,07,41,045,00*74
$GPGSV,2,2,08,08,26,313,37,09,55,279,46,16,09,076,00,24,45,183,45*7C
$PGRME,40.1,M,53.9,M,67.2,M*17
$GPGLL,3403.588,N,11711.880,W,024135,A*3F
$PGRMZ,1369,f,3*26
$PGRMM,WGS 84*06
$GPBOD,,T,,M,,*47
$GPRTE,1,1,c,0,ZZZZZZ*2B
$GPWPL,3911.456,N,09634.757,W,ZZZZZZ*59
$GPRMC,024136,A,3403.593,N,11711.895,W,036.2,288.0,231298,013.6,E*6C
$GPRMB,A,,,,,,,,,,,,V*71
$GPGGA,024137,3403.593,N,11711.898,W,1,05,1.7,418.8,M,-30.7,M,,*79
$GPGSA,A,3,02,04,,,08,09,,24,,,,,2.9,1.7,2.3*3F
$GPGSV,2,1,08,02,22,110,41,04,66,104,46,05,31,310,42,07,41,045,00*76
$GPGSV,2,2,08,08,26,313,40,09,55,279,45,16,09,076,00,24,45,183,45*7F
$PGRME,40.1,M,53.9,M,67.2,M*17
$GPGLL,3403.595,N,11711.903,W,024137,A*3B
$PGRMZ,1374,f,3*2A
$PGRMM,WGS 84*06
$GPBOD,,T,,M,,*47
$GPRTE,1,1,c,0,ZZZZZZ*2B
$GPWPL,3911.456,N,09634.757,W,ZZZZZZ*59
$GPRMC,024138,A,3403.599,N,11711.920,W,035.8,287.5,231298,013.6,E*64
$GPRMB,A,,,,,,,,,,,,V*71
$GPGGA,024139,3403.600,N,11711.922,W,1,05,1.7,419.5,M,-30.7,M,,*72
$GPGSA,A,3,02,04,,,08,09,,24,,,,,2.9,1.7,2.3*3F
$GPGSV,2,1,08,02,22,110,42,04,66,104,47,05,31,310,41,07,41,045,00*77
$GPGSV,2,2,08,08,26,313,40,09,55,279,46,16,09,076,00,24,45,183,45*7C
$PGRME,40.1,M,53.9,M,67.2,M*17
$GPGLL,3403.601,N,11711.931,W,024139,A*3A
$PGRMZ,1378,f,3*26
$PGRMM,WGS 84*06
$GPBOD,,T,,M,,*47
$GPRTE,1,1,c,0,ZZZZZZ*2B
$GPWPL,3911.456,N,09634.757,W,ZZZZZZ*59
$GPRMC,024140,A,3403.603,N,11711.944,W,030.4,289.5,231298,013.6,E*6E
$GPRMB,A,,,,,,,,,,,,V*71
$GPGGA,024141,3403.604,N,11711.946,W,1,05,1.7,420.4,M,-30.7,M,,*70
$GPGSA,A,3,02,04,,,08,09,,24,,,,,2.9,1.7,2.3*3F
$GPGSV,2,1,08,02,22,110,40,04,66,104,47,05,31,310,40,07,41,045,00*74
$GPGSV,2,2,08,08,26,313,38,09,55,279,45,16,09,076,00,24,45,183,44*71
$PGRME,40.1,M,53.9,M,67.2,M*17
$GPGLL,3403.608,N,11711.949,W,024141,A*33
$PGRMZ,1379,f,3*27
$PGRMM,WGS 84*06
$GPBOD,,T,,M,,*47
$GPRTE,1,1,c,0,ZZZZZZ*2B
$GPWPL,3911.456,N,09634.757,W,ZZZZZZ*59
$GPRMC,024142,A,3403.611,N,11711.961,W,028.4,295.3,231298,013.6,E*6A
$GPRMB,A,,,,,,,,,,,,V*71
$GPGGA,024143,3403.612,N,11711.962,W,1,05,1.7,420.9,M,-30.7,M,,*7E
$GPGSA,A,3,02,04,,,08,09,,24,,,,,2.9,1.7,2.3*3F
$GPGSV,2,1,08,02,22,110,39,04,66,104,46,05,31,310,43,07,41,045,00*78
$GPGSV,2,2,08,08,26,313,36,09,55,279,46,16,09,076,00,24,45,183,45*7D
$PGRME,40.1,M,53.9,M,67.2,M*17
$GPGLL,3403.613,N,11711.966,W,024143,A*36
$PGRMZ,1381,f,3*20
$PGRMM,WGS 84*06
$GPBOD,,T,,M,,*47
$GPRTE,1,1,c,0,ZZZZZZ*2B
$GPWPL,3911.456,N,09634.757,W,ZZZZZZ*59
$GPRMC,024144,A,3403.617,N,11711.976,W,027.2,291.7,231298,013.6,E*65
$GPRMB,A,,,,,,,,,,,,V*71
$GPGGA,024145,3403.617,N,11711.978,W,1,05,1.7,421.4,M,-30.7,M,,*7A
$GPGSA,A,3,02,04,,,08,09,,24,,,,,2.9,1.7,2.3*3F
$GPGSV,2,1,08,02,22,110,41,04,66,104,46,05,31,310,42,07,41,045,00*76
