$GPGGA,184943.000,3409.0533,N,11817.0188,W,1,07,1.4,144.1,M,-33.5,M,,0000*63
$GPRMC,184943.000,A,3409.0533,N,11817.0188,W,0.00,,200306,,,A*62
$GPVTG,,T,,M,0.00,N,0.0,K,A*13
$GPGGA,184944.000,3409.0533,N,11817.0188,W,1,07,1.4,144.1,M,-33.5,M,,0000*64
$GPRMC,184944.000,A,3409.0533,N,11817.0188,W,0.00,,200306,,,A*65
$GPVTG,,T,,M,0.00,N,0.0,K,A*13
$GPGGA,184945.000,3409.0533,N,11817.0188,W,1,07,1.4,144.2,M,-33.5,M,,0000*66
$GPRMC,184945.000,A,3409.0533,N,11817.0188,W,0.00,,200306,,,A*64
$GPVTG,,T,,M,0.00,N,0.0,K,A*13
$GPGGA,184946.000,3409.0533,N,11817.0188,W,1,07,1.4,144.3,M,-33.5,M,,0000*64
$GPRMC,184946.000,A,3409.0533,N,11817.0188,W,0.00,,200306,,,A*67
$GPVTG,,T,,M,0.00,N,0.0,K,A*13
$GPGGA,184947.000,3409.0533,N,11817.0188,W,1,07,1.4,144.3,M,-33.5,M,,0000*65
$GPGSA,A,3,07,21,18,06,10,26,29,,,,,,2.9,1.4,2.5*3E
$GPGSV,3,1,10,06,81,017,44,07,74,335,41,21,47,288,29,18,35,207,42*72
$GPGSV,3,2,10,10,32,043,39,29,26,100,37,15,24,270,30,26,23,115,37*7E
$GPGSV,3,3,10,16,13,319,33,05,12,176,30*73
$GPRMC,184947.000,A,3409.0533,N,11817.0188,W,0.00,,200306,,,A*66
$GPVTG,,T,,M,0.00,N,0.0,K,A*13
$GPGGA,184948.000,3409.0533,N,11817.0188,W,1,07,1.4,144.4,M,-33.5,M,,0000*6D
$GPRMC,184948.000,A,3409.0533,N,11817.0188,W,0.00,,200306,,,A*69
$GPVTG,,T,,M,0.00,N,0.0,K,A*13
$GPGGA,184949.000,3409.0533,N,11817.0188,W,1,06,1.9,144.4,M,-33.5,M,,0000*60
$GPRMC,184949.000,A,3409.0533,N,11817.0188,W,0.00,,200306,,,A*68
$GPVTG,,T,,M,0.00,N,0.0,K,A*13
$GPGGA,184950.000,3409.0533,N,11817.0188,W,1,06,1.9,144.5,M,-33.5,M,,0000*69
$GPRMC,184950.000,A,3409.0533,N,11817.0188,W,0.00,,200306,,,A*60
$GPVTG,,T,,M,0.00,N,0.0,K,A*13
$GPGGA,184951.000,3409.0533,N,11817.0189,W,1,07,1.4,144.3,M,-33.5,M,,0000*63
$GPRMC,184951.000,A,3409.0533,N,11817.0189,W,0.00,,200306,,,A*60
$GPVTG,,T,,M,0.00,N,0.0,K,A*13
$GPGGA,184952.000,3409.0534,N,11817.0190,W,1,07,1.4,144.1,M,-33.5,M,,0000*6D
$GPGSA,A,3,07,21,18,06,10,26,29,,,,,,2.9,1.4,2.5*3E
$GPGSV,3,1,10,06,81,017,44,07,74,335,41,21,47,288,25,18,35,207,42*7E
$GPGSV,3,2,10,10,32,043,39,29,26,100,36,15,24,270,27,26,23,115,37*79
$GPGSV,3,3,10,16,13,319,32,05,12,176,29*7A
$GPRMC,184952.000,A,3409.0534,N,11817.0190,W,0.00,,200306,,,A*6C
$GPVTG,,T,,M,0.00,N,0.0,K,A*13
$GPGGA,184953.000,3409.0535,N,11817.0191,W,1,07,1.4,144.0,M,-33.5,M,,0000*6D
$GPRMC,184953.000,A,3409.0535,N,11817.0191,W,0.00,,200306,,,A*6D
$GPVTG,,T,,M,0.00,N,0.0,K,A*13
$GPGGA,184954.000,3409.0535,N,11817.0191,W,1,07,1.4,144.0,M,-33.5,M,,0000*6A
$GPRMC,184954.000,A,3409.0535,N,11817.0191,W,0.00,,200306,,,A*6A
$GPVTG,,T,,M,0.00,N,0.0,K,A*13
$GPGGA,184955.000,3409.0535,N,11817.0191,W,1,07,1.4,144.0,M,-33.5,M,,0000*6B
$GPRMC,184955.000,A,3409.0535,N,11817.0191,W,0.00,,200306,,,A*6B
$GPVTG,,T,,M,0.00,N,0.0,K,A*13
$GPGGA,184956.000,3409.0536,N,11817.0192,W,1,07,1.4,143.9,M,-33.5,M,,0000*66
$GPRMC,184956.000,A,3409.0536,N,11817.0192,W,0.00,,200306,,,A*68
$GPVTG,,T,,M,0.00,N,0.0,K,A*13
$GPGGA,184957.000,3409.0535,N,11817.0190,W,1,07,1.4,144.2,M,-33.5,M,,0000*6A
$GPGSA,A,3,07,21,18,06,10,26,29,,,,,,2.9,1.4,2.5*3E
$GPGSV,3,1,10,06,81,017,44,07,74,335,40,21,47,288,26,18,35,207,43*7D
$GPGSV,3,2,10,10,32,043,39,29,26,100,36,15,24,270,28,26,23,115,37*76
$GPGSV,3,3,10,16,13,319,32,05,12,176,07*76
$GPRMC,184957.000,A,3409.0535,N,11817.0190,W,0.00,,200306,,,A*68
$GPVTG,,T,,M,0.00,N,0.0,K,A*13
$GPGGA,184958.000,3409.0534,N,11817.0190,W,1,07,1.4,144.4,M,-33.5,M,,0000*62
$GPRMC,184958.000,A,3409.0534,N,11817.0190,W,0.00,,200306,,,A*66
$GPVTG,,T,,M,0.00,N,0.0,K,A*13
$GPGGA,184959.000,3409.0534,N,11817.0189,W,1,06,1.9,144.4,M,-33.5,M,,0000*67
$GPRMC,184959.000,A,3409.0534,N,11817.0189,W,0.00,,200306,,,A*6F
$GPVTG,,T,,M,0.00,N,0.0,K,A*13
$GPGGA,185000.000,3409.0534,N,11817.0189,W,1,06,1.9,144.5,M,-33.5,M,,0000*62
$GPRMC,185000.000,A,3409.0534,N,11817.0189,W,0.00,,200306,,,A*6B
$GPVTG,,T,,M,0.00,N,0.0,K,A*13
$GPGGA,185001.000,3409.0534,N,11817.0189,W,1,06,1.9,144.5,M,-33.5,M,,0000*63
$GPRMC,185001.000,A,3409.0534,N,11817.0189,W,0.00,,200306,,,A*6A
$GPVTG,,T,,M,0.00,N,0.0,K,A*13
$GPGGA,185002.000,3409.0534,N,11817.0189,W,1,06,1.9,144.6,M,-33.5,M,,0000*63
$GPGSA,A,3,07,18,06,10,26,29,,,,,,,3.7,1.9,3.1*3A
$GPGSV,3,1,10,06,81,017,44,07,74,335,41,21,47,288,23,18,35,207,43*79
$GPGSV,3,2,10,10,32,043,40,29,26,100,36,15,24,270,33,26,23,115,36*73
$GPGSV,3,3,10,16,13,319,31,05,12,176,11*72
$GPRMC,185002.000,A,3409.0534,N,11817.0189,W,0.00,,200306,,,A*69
$GPVTG,,T,,M,0.00,N,0.0,K,A*13
$GPGGA,185003.000,3409.0534,N,11817.0189,W,1,06,1.9,144.6,M,-33.5,M,,0000*62
$GPRMC,185003.000,A,3409.0534,N,11817.0189,W,0.00,,200306,,,A*68
$GPVTG,,T,,M,0.00,N,0.0,K,A*13
$GPGGA,185004.000,3409.0535,N,11817.0191,W,1,08,1.0,144.2,M,-33.5,M,,0000*6E
$GPRMC,185004.000,A,3409.0535,N,11817.0191,W,0.00,,200306,,,A*67
$GPVTG,,T,,M,0.00,N,0.0,K,A*13
$GPGGA,185005.000,3409.0536,N,11817.0193,W,1,08,1.0,143.8,M,-33.5,M,,0000*63
$GPRMC,185005.000,A,3409.0536,N,11817.0193,W,0.00,,200306,,,A*67
$GPVTG,,T,,M,0.00,N,0.0,K,A*13
$GPGGA,185006.000,3409.0537,N,11817.0194,W,1,08,1.0,143.6,M,-33.5,M,,0000*68
$GPRMC,185006.000,A,3409.0537,N,11817.0194,W,0.00,,200306,,,A*62
$GPVTG,,T,,M,0.00,N,0.0,K,A*13
$GPGGA,185007.000,3409.0538,N,11817.0195,W,1,08,1.0,143.4,M,-33.5,M,,0000*65
$GPGSA,A,3,07,21,18,06,10,16,26,29,,,,,1.7,1.0,1.4*32
$GPGSV,3,1,10,06,81,018,44,07,74,335,41,21,48,288,26,18,35,207,43*7C
$GPGSV,3,2,10,10,31,043,40,29,26,100,36,15,24,270,33,26,24,115,35*74
$GPGSV,3,3,10,16,13,318,31,05,12,176,13*71
$GPRMC,185007.000,A,3409.0538,N,11817.0195,W,0.00,,200306,,,A*6D
$GPVTG,,T,,M,0.00,N,0.0,K,A*13
$GPGGA,185008.000,3409.0538,N,11817.0196,W,1,08,1.0,143.3,M,-33.5,M,,0000*6E
$GPRMC,185008.000,A,3409.0538,N,11817.0196,W,0.00,,200306,,,A*61
$GPVTG,,T,,M,0.00,N,0.0,K,A*13
$GPGGA,185009.000,3409.0539,N,11817.0197,W,1,08,1.0,143.1,M,-33.5,M,,0000*6D
$GPRMC,185009.000,A,3409.0539,N,11817.0197,W,0.00,,200306,,,A*60
$GPVTG,,T,,M,0.00,N,0.0,K,A*13
$GPGGA,185010.000,3409.0539,N,11817.0197,W,1,08,1.0,143.1,M,-33.5,M,,0000*65
$GPRMC,185010.000,A,3409.0539,N,11817.0197,W,0.00,,200306,,,A*68
$GPVTG,,T,,M,0.00,N,0.0,K,A*13
$GPGGA,185011.000,3409.0538,N,11817.0196,W,1,08,1.0,143.2,M,-33.5,M,,0000*67
$GPRMC,185011.000,A,3409.0538,N,11817.0196,W,0.00,,200306,,,A*69
$GPVTG,,T,,M,0.00,N,0.0,K,A*13
$GPGGA,185012.000,3409.0538,N,11817.0196,W,1,08,1.0,143.2,M,-33.5,M,,0000*64
$GPGSA,A,3,07,21,18,06,10,16,26,29,,,,,1.8,1.0,1.4*3D
$GPGSV,3,1,10,06,81,018,44,07,74,335,41,21,48,288,27,18,35,207,43*7D
$GPGSV,3,2,10,10,31,043,40,29,26,100,36,15,24,270,32,26,24,115,35*75
$GPGSV,3,3,10,16,13,318,31,05,12,176,24*75
$GPRMC,185012.000,A,3409.0538,N,11817.0196,W,0.00,,200306,,,A*6A
$GPVTG,,T,,M,0.00,N,0.0,K,A*13
$GPGGA,185013.000,3409.0538,N,11817.0195,W,1,08,1.0,143.3,M,-33.5,M,,0000*67
$GPRMC,185013.000,A,3409.0538,N,11817.0195,W,0.00,,200306,,,A*68
$GPVTG,,T,,M,0.00,N,0.0,K,A*13
$GPGGA,185014.000,3409.0537,N,11817.0194,W,1,08,1.0,143.5,M,-33.5,M,,0000*68
$GPRMC,185014.000,A,3409.0537,N,11817.0194,W,0.00,,200306,,,A*61
$GPVTG,,T,,M,0.00,N,0.0,K,A*13
$GPGGA,185015.000,3409.0536,N,11817.0191,W,1,08,1.0,143.7,M,-33.5,M,,0000*6F
$GPRMC,185015.000,A,3409.0536,N,11817.0191,W,0.00,,200306,,,A*64
$GPVTG,,T,,M,0.00,N,0.0,K,A*13
$GPGGA,185016.000,3409.0535,N,11817.0189,W,1,08,1.0,144.0,M,-33.5,M,,0000*66
$GPRMC,185016.000,A,3409.0535,N,11817.0189,W,0.00,,200306,,,A*6D
$GPVTG,,T,,M,0.00,N,0.0,K,A*13
$GPGGA,185017.000,3409.0534,N,11817.0187,W,1,08,1.0,144.2,M,-33.5,M,,0000*6A
$GPGSA,A,3,07,21,18,06,10,16,26,29,,,,,1.8,1.0,1.4*3D
$GPGSV,3,1,10,06,81,018,44,07,74,335,42,21,48,288,28,18,35,207,43*71
$GPGSV,3,2,10,10,31,043,40,29,26,100,36,15,24,270,26,26,24,115,34*71
$GPGSV,3,3,10,16,13,318,31,05,12,176,22*73
$GPRMC,185017.000,A,3409.0534,N,11817.0187,W,0.00,,200306,,,A*63
$GPVTG,,T,,M,0.00,N,0.0,K,A*13
$GPGGA,185018.000,3409.0533,N,11817.0185,W,1,08,1.0,144.5,M,-33.5,M,,0000*67
$GPRMC,185018.000,A,3409.0533,N,11817.0185,W,0.00,,200306,,,A*69
$GPVTG,,T,,M,0.00,N,0.0,K,A*13
$GPGGA,185019.000,3409.0532,N,11817.0183,W,1,08,1.0,144.7,M,-33.5,M,,0000*63
$GPRMC,185019.000,A,3409.0532,N,11817.0183,W,0.00,,200306,,,A*6F
$GPVTG,,T,,M,0.00,N,0.0,K,A*13
$GPGGA,185020.000,3409.0532,N,11817.0181,W,1,08,1.0,144.8,M,-33.5,M,,0000*64
$GPRMC,185020.000,A,3409.0532,N,11817.0181,W,0.00,,200306,,,A*67
$GPVTG,,T,,M,0.00,N,0.0,K,A*13
$GPGGA,185021.000,3409.0531,N,11817.0180,W,1,08,1.0,145.0,M,-33.5,M,,0000*6E
$GPRMC,185021.000,A,3409.0531,N,11817.0180,W,0.00,,200306,,,A*64
$GPVTG,,T,,M,0.00,N,0.0,K,A*13
$GPGGA,185022.000,3409.0530,N,11817.0178,W,1,08,1.0,145.1,M,-33.5,M,,0000*6A
$GPGSA,A,3,07,21,18,06,10,16,26,29,,,,,1.8,1.0,1.4*3D
$GPGSV,3,1,10,06,81,018,44,07,74,335,41,21,48,288,28,18,35,207,43*72
$GPGSV,3,2,10,10,31,043,40,29,26,100,35,15,24,270,26,26,24,115,34*72
$GPGSV,3,3,10,16,13,318,30,05,12,176,22*72
$GPRMC,185022.000,A,3409.0530,N,11817.0178,W,0.00,,200306,,,A*61
$GPVTG,,T,,M,0.00,N,0.0,K,A*13
$GPGGA,185023.000,3409.0530,N,11817.0177,W,1,08,1.0,145.2,M,-33.5,M,,0000*67
$GPRMC,185023.000,A,3409.0530,N,11817.0177,W,0.00,,200306,,,A*6F
$GPVTG,,T,,M,0.00,N,0.0,K,A*13
$GPGGA,185024.000,3409.0530,N,11817.0176,W,1,08,1.0,145.3,M,-33.5,M,,0000*60
$GPRMC,185024.000,A,3409.0530,N,11817.0176,W,0.00,,200306,,,A*69
$GPVTG,,T,,M,0.00,N,0.0,K,A*13
$GPGGA,185025.000,3409.0529,N,11817.0175,W,1,08,1.0,145.4,M,-33.5,M,,0000*6D
$GPRMC,185025.000,A,3409.0529,N,11817.0175,W,0.00,,200306,,,A*63
$GPVTG,,T,,M,0.00,N,0.0,K,A*13
$GPGGA,185026.000,3409.0529,N,11817.0175,W,1,08,1.0,145.5,M,-33.5,M,,0000*6F
$GPRMC,185026.000,A,3409.0529,N,11817.0175,W,0.00,,200306,,,A*60
$GPVTG,,T,,M,0.00,N,0.0,K,A*13
$GPGGA,185027.000,3409.0529,N,11817.0174,W,1,08,1.0,145.5,M,-33.5,M,,0000*6F
$GPGSA,A,3,07,21,18,06,10,16,26,29,,,,,1.8,1.0,1.4*3D
$GPGSV,3,1,10,06,81,018,44,07,74,335,41,21,48,288,26,18,35,207,43*7C
$GPGSV,3,2,10,10,31,043,40,29,26,100,35,15,24,270,32,26,24,115,34*77
$GPGSV,3,3,10,16,13,318,30,05,12,176,13*70
$GPRMC,185027.000,A,3409.0529,N,11817.0174,W,0.00,,200306,,,A*60
$GPVTG,,T,,M,0.00,N,0.0,K,A*13
$GPGGA,185028.000,3409.0529,N,11817.0175,W,1,07,1.1,145.4,M,-33.5,M,,0000*6E
$GPRMC,185028.000,A,3409.0529,N,11817.0175,W,0.00,,200306,,,A*6E
$GPVTG,,T,,M,0.00,N,0.0,K,A*13
$GPGGA,185029.000,3409.0530,N,11817.0176,W,1,07,1.1,145.3,M,-33.5,M,,0000*63
$GPRMC,185029.000,A,3409.0530,N,11817.0176,W,0.00,,200306,,,A*64
$GPVTG,,T,,M,0.00,N,0.0,K,A*13
$GPGGA,185030.000,3409.0530,N,11817.0177,W,1,07,1.1,145.2,M,-33.5,M,,0000*6B
$GPRMC,185030.000,A,3409.0530,N,11817.0177,W,0.00,,200306,,,A*6D
$GPVTG,,T,,M,0.00,N,0.0,K,A*13
$GPGGA,185031.000,3409.0531,N,11817.0178,W,1,07,1.1,145.1,M,-33.5,M,,0000*67
$GPRMC,185031.000,A,3409.0531,N,11817.0178,W,0.00,,200306,,,A*62
$GPVTG,,T,,M,0.00,N,0.0,K,A*13
$GPGGA,185032.000,3409.0532,N,11817.0179,W,1,08,1.0,145.0,M,-33.5,M,,0000*69
$GPGSA,A,3,07,21,18,06,10,16,26,29,,,,,1.8,1.0,1.4*3D
$GPGSV,3,1,10,06,81,018,44,07,74,335,41,21,48,288,27,18,35,207,43*7D
$GPGSV,3,2,10,10,31,043,40,29,26,100,34,15,24,270,32,26,24,115,34*76
$GPGSV,3,3,10,16,13,318,31,05,12,176,30*70
$GPRMC,185032.000,A,3409.0532,N,11817.0179,W,0.00,,200306,,,A*63
$GPVTG,,T,,M,0.00,N,0.0,K,A*13
$GPGGA,185033.000,3409.0532,N,11817.0180,W,1,08,1.0,145.0,M,-33.5,M,,0000*6E
$GPRMC,185033.000,A,3409.0532,N,11817.0180,W,0.00,,200306,,,A*64
$GPVTG,,T,,M,0.00,N,0.0,K,A*13
$GPGGA,185034.000,3409.0532,N,11817.0179,W,1,08,1.0,145.0,M,-33.5,M,,0000*6F
$GPRMC,185034.000,A,3409.0532,N,11817.0179,W,0.00,,200306,,,A*65
$GPVTG,,T,,M,0.00,N,0.0,K,A*13
$GPGGA,185035.000,3409.0531,N,11817.0178,W,1,08,1.0,145.1,M,-33.5,M,,0000*6D
$GPRMC,185035.000,A,3409.0531,N,11817.0178,W,0.00,,200306,,,A*66
$GPVTG,,T,,M,0.00,N,0.0,K,A*13
$GPGGA,185036.000,3409.0531,N,11817.0179,W,1,08,1.0,145.1,M,-33.5,M,,0000*6F
$GPRMC,185036.000,A,3409.0531,N,11817.0179,W,0.00,,200306,,,A*64
$GPVTG,,T,,M,0.00,N,0.0,K,A*13
$GPGGA,185037.000,3409.0530,N,11817.0176,W,1,08,1.0,145.3,M,-33.5,M,,0000*62
$GPGSA,A,3,07,21,18,06,10,16,26,29,,,,,1.8,1.0,1.4*3D
$GPGSV,3,1,10,06,81,018,44,07,74,335,41,21,48,288,30,18,35,207,43*7B
$GPGSV,3,2,10,10,31,043,40,29,26,100,33,15,24,270,33,26,24,115,34*70
$GPGSV,3,3,10,16,13,318,31,05,12,176,31*71
$GPRMC,185037.000,A,3409.0530,N,11817.0176,W,0.00,,200306,,,A*6B
$GPVTG,,T,,M,0.00,N,0.0,K,A*13
$GPGGA,185038.000,3409.0530,N,11817.0175,W,1,08,1.0,145.4,M,-33.5,M,,0000*69
$GPRMC,185038.000,A,3409.0530,N,11817.0175,W,0.00,,200306,,,A*67
$GPVTG,,T,,M,0.00,N,0.0,K,A*13
$GPGGA,185039.000,3409.0530,N,11817.0176,W,1,08,1.0,145.3,M,-33.5,M,,0000*6C
$GPRMC,185039.000,A,3409.0530,N,11817.0176,W,0.00,,200306,,,A*65
$GPVTG,,T,,M,0.00,N,0.0,K,A*13
$GPGGA,185040.000,3409.0530,N,11817.0176,W,1,08,1.0,145.3,M,-33.5,M,,0000*62
$GPRMC,185040.000,A,3409.0530,N,11817.0176,W,0.00,,200306,,,A*6B
$GPVTG,,T,,M,0.00,N,0.0,K,A*13
$GPGGA,185041.000,3409.0531,N,11817.0177,W,1,08,1.0,145.3,M,-33.5,M,,0000*63
$GPRMC,185041.000,A,3409.0531,N,11817.0177,W,0.00,,200306,,,A*6A
$GPVTG,,T,,M,0.00,N,0.0,K,A*13
$GPGGA,185042.000,3409.0531,N,11817.0177,W,1,08,1.0,145.3,M,-33.5,M,,0000*60
$GPGSA,A,3,07,21,18,06,10,16,26,29,,,,,1.8,1.0,1.4*3D
$GPGSV,3,1,10,06,81,018,44,07,74,335,41,21,48,288,31,18,35,207,43*7A
$GPGSV,3,2,10,10,31,043,40,29,26,100,33,15,24,270,33,26,24,115,34*70
$GPGSV,3,3,10,16,13,318,31,05,12,176,31*71
$GPRMC,185042.000,A,3409.0531,N,11817.0177,W,0.00,,200306,,,A*69
$GPVTG,,T,,M,0.00,N,0.0,K,A*13
$GPGGA,185043.000,3409.0529,N,11817.0174,W,1,08,1.0,145.5,M,-33.5,M,,0000*6D
$GPRMC,185043.000,A,3409.0529,N,11817.0174,W,0.00,,200306,,,A*62
$GPVTG,,T,,M,0.00,N,0.0,K,A*13
$GPGGA,185044.000,3409.0529,N,11817.0172,W,1,08,1.0,145.6,M,-33.5,M,,0000*6F
$GPRMC,185044.000,A,3409.0529,N,11817.0172,W,0.00,,200306,,,A*63
$GPVTG,,T,,M,0.00,N,0.0,K,A*13
$GPGGA,185045.000,3409.0528,N,11817.0171,W,1,08,1.0,145.7,M,-33.5,M,,0000*6D
$GPRMC,185045.000,A,3409.0528,N,11817.0171,W,0.00,,200306,,,A*60
$GPVTG,,T,,M,0.00,N,0.0,K,A*13
$GPGGA,185046.000,3409.0528,N,11817.0170,W,1,08,1.0,145.8,M,-33.5,M,,0000*60
$GPRMC,185046.000,A,3409.0528,N,11817.0170,W,0.00,,200306,,,A*62
$GPVTG,,T,,M,0.00,N,0.0,K,A*13
$GPGGA,185047.000,3409.0527,N,11817.0170,W,1,08,1.0,145.9,M,-33.5,M,,0000*6F
$GPGSA,A,3,07,21,18,06,10,16,26,29,,,,,1.8,1.0,1.4*3D
$GPGSV,3,1,10,06,81,020,44,07,74,335,41,21,48,288,30,18,35,207,43*70
$GPGSV,3,2,10,10,31,043,39,29,26,099,33,15,24,270,27,26,24,114,35*7A
$GPGSV,3,3,10,16,13,318,31,05,12,176,31*71
$GPRMC,185047.000,A,3409.0527,N,11817.0170,W,0.00,,200306,,,A*6C
$GPVTG,,T,,M,0.00,N,0.0,K,A*13
$GPGGA,185048.000,3409.0527,N,11817.0169,W,1,08,1.0,145.9,M,-33.5,M,,0000*68
$GPRMC,185048.000,A,3409.0527,N,11817.0169,W,0.00,,200306,,,A*6B
$GPVTG,,T,,M,0.00,N,0.0,K,A*13
$GPGGA,185049.000,3409.0527,N,11817.0169,W,1,08,1.0,145.9,M,-33.5,M,,0000*69
$GPRMC,185049.000,A,3409.0527,N,11817.0169,W,0.00,,200306,,,A*6A
$GPVTG,,T,,M,0.00,N,0.0,K,A*13
$GPGGA,185050.000,3409.0527,N,11817.0169,W,1,08,1.0,145.9,M,-33.5,M,,0000*61
$GPRMC,185050.000,A,3409.0527,N,11817.0169,W,0.00,,200306,,,A*62
$GPVTG,,T,,M,0.00,N,0.0,K,A*13
$GPGGA,185051.000,3409.0527,N,11817.0170,W,1,08,1.0,145.9,M,-33.5,M,,0000*68
$GPRMC,185051.000,A,3409.0527,N,11817.0170,W,0.00,,200306,,,A*6B
$GPVTG,,T,,M,0.00,N,0.0,K,A*13
$GPGGA,185052.000,3409.0528,N,11817.0170,W,1,08,1.0,145.8,M,-33.5,M,,0000*65
$GPGSA,A,3,07,21,18,06,10,16,26,29,,,,,1.8,1.0,1.4*3D
$GPGSV,3,1,10,06,81,020,44,07,74,335,41,21,48,288,31,18,35,207,43*71
$GPGSV,3,2,10,10,31,043,39,29,26,099,34,15,24,270,29,26,24,114,35*73
$GPGSV,3,3,10,16,13,318,27,05,12,176,32*75
$GPRMC,185052.000,A,3409.0528,N,11817.0170,W,0.00,,200306,,,A*67
$GPVTG,,T,,M,0.00,N,0.0,K,A*13
$GPGGA,185053.000,3409.0528,N,11817.0170,W,1,08,1.0,145.8,M,-33.5,M,,0000*64
$GPRMC,185053.000,A,3409.0528,N,11817.0170,W,0.00,,200306,,,A*66
$GPVTG,,T,,M,0.00,N,0.0,K,A*13
$GPGGA,185054.000,3409.0528,N,11817.0171,W,1,08,1.0,145.8,M,-33.5,M,,0000*62
$GPRMC,185054.000,A,3409.0528,N,11817.0171,W,0.00,,200306,,,A*60
$GPVTG,,T,,M,0.00,N,0.0,K,A*13
$GPGGA,185055.000,3409.0528,N,11817.0171,W,1,08,1.0,145.8,M,-33.5,M,,0000*63
$GPRMC,185055.000,A,3409.0528,N,11817.0171,W,0.00,,200306,,,A*61
$GPVTG,,T,,M,0.00,N,0.0,K,A*13
$GPGGA,185056.000,3409.0528,N,11817.0172,W,1,08,1.0,145.8,M,-33.5,M,,0000*63
$GPRMC,185056.000,A,3409.0528,N,11817.0172,W,0.00,,200306,,,A*61
$GPVTG,,T,,M,0.00,N,0.0,K,A*13
$GPGGA,185057.000,3409.0529,N,11817.0172,W,1,08,1.0,145.7,M,-33.5,M,,0000*6C
$GPGSA,A,3,07,21,18,06,10,16,26,29,,,,,1.8,1.0,1.4*3D
$GPGSV,3,1,10,06,81,020,44,07,74,335,41,21,48,288,32,18,35,207,44*75
$GPGSV,3,2,10,10,31,043,39,29,26,099,34,15,24,270,31,26,24,114,36*79
$GPGSV,3,3,10,16,13,318,28,05,12,176,32*7A
$GPRMC,185057.000,A,3409.0529,N,11817.0172,W,0.00,,200306,,,A*61
$GPVTG,,T,,M,0.00,N,0.0,K,A*13
$GPGGA,185058.000,3409.0529,N,11817.0172,W,1,08,1.0,145.7,M,-33.5,M,,0000*63
$GPRMC,185058.000,A,3409.0529,N,11817.0172,W,0.00,,200306,,,A*6E
$GPVTG,,T,,M,0.00,N,0.0,K,A*13
$GPGGA,185059.000,3409.0529,N,11817.0173,W,1,08,1.0,145.7,M,-33.5,M,,0000*63
$GPRMC,185059.000,A,3409.0529,N,11817.0173,W,0.00,,200306,,,A*6E
$GPVTG,,T,,M,0.00,N,0.0,K,A*13
$GPGGA,185100.000,3409.0529,N,11817.0173,W,1,08,1.0,145.6,M,-33.5,M,,0000*6F
$GPRMC,185100.000,A,3409.0529,N,11817.0173,W,0.00,,200306,,,A*63
$GPVTG,,T,,M,0.00,N,0.0,K,A*13
$GPGGA,185101.000,3409.0529,N,11817.0174,W,1,08,1.0,145.6,M,-33.5,M,,0000*69
$GPRMC,185101.000,A,3409.0529,N,11817.0174,W,0.00,,200306,,,A*65
$GPVTG,,T,,M,0.00,N,0.0,K,A*13
$GPGGA,185102.000,3409.0529,N,11817.0174,W,1,08,1.0,145.7,M,-33.5,M,,0000*6B
$GPGSA,A,3,07,21,18,06,10,16,26,29,,,,,1.8,1.0,1.4*3D
$GPGSV,3,1,10,06,81,020,43,07,74,335,41,21,48,288,32,18,35,207,44*72
$GPGSV,3,2,10,10,31,043,38,29,26,099,34,15,24,270,29,26,24,114,35*72
$GPGSV,3,3,10,16,13,318,32,05,12,176,31*72
$GPRMC,185102.000,A,3409.0529,N,11817.0174,W,0.00,,200306,,,A*66
$GPVTG,,T,,M,0.00,N,0.0,K,A*13
$GPGGA,185103.000,3409.0529,N,11817.0174,W,1,08,1.0,145.9,M,-33.5,M,,0000*64
$GPRMC,185103.000,A,3409.0529,N,11817.0174,W,0.00,,200306,,,A*67
$GPVTG,,T,,M,0.00,N,0.0,K,A*13
$GPGGA,185104.000,3409.0529,N,11817.0174,W,1,09,0.9,146.0,M,-33.5,M,,0000*60
$GPRMC,185104.000,A,3409.0529,N,11817.0174,W,0.00,,200306,,,A*60
$GPVTG,,T,,M,0.00,N,0.0,K,A*13
$GPGGA,185105.000,3409.0529,N,11817.0174,W,1,09,0.9,145.9,M,-33.5,M,,0000*6B
$GPRMC,185105.000,A,3409.0529,N,11817.0174,W,0.00,,200306,,,A*61
$GPVTG,,T,,M,0.00,N,0.0,K,A*13
$GPGGA,185106.000,3409.0529,N,11817.0175,W,1,09,0.9,145.8,M,-33.5,M,,0000*68
$GPRMC,185106.000,A,3409.0529,N,11817.0175,W,0.00,,200306,,,A*63
$GPVTG,,T,,M,0.00,N,0.0,K,A*13
$GPGGA,185107.000,3409.0530,N,11817.0175,W,1,09,0.9,145.8,M,-33.5,M,,0000*61
$GPGSA,A,3,07,21,18,06,10,05,16,26,29,,,,1.6,0.9,1.3*39
$GPGSV,3,1,10,06,81,020,44,07,75,335,41,21,48,288,33,18,35,207,44*75
$GPGSV,3,2,10,10,31,043,38,29,26,099,29,15,25,270,35,26,24,114,36*71
$GPGSV,3,3,10,16,13,318,31,05,11,176,31*72
$GPRMC,185107.000,A,3409.0530,N,11817.0175,W,0.00,,200306,,,A*6A
$GPVTG,,T,,M,0.00,N,0.0,K,A*13
$GPGGA,185108.000,3409.0529,N,11817.0175,W,1,09,0.9,145.9,M,-33.5,M,,0000*67
$GPRMC,185108.000,A,3409.0529,N,11817.0175,W,0.00,,200306,,,A*6D
$GPVTG,,T,,M,0.00,N,0.0,K,A*13
$GPGGA,185109.000,3409.0529,N,11817.0175,W,1,09,0.9,146.0,M,-33.5,M,,0000*6C
$GPRMC,185109.000,A,3409.0529,N,11817.0175,W,0.00,,200306,,,A*6C
$GPVTG,,T,,M,0.00,N,0.0,K,A*13
$GPGGA,185110.000,3409.0529,N,11817.0175,W,1,09,0.9,146.1,M,-33.5,M,,0000*65
$GPRMC,185110.000,A,3409.0529,N,11817.0175,W,0.00,,200306,,,A*64
$GPVTG,,T,,M,0.00,N,0.0,K,A*13
$GPGGA,185111.000,3409.0529,N,11817.0176,W,1,08,0.9,146.0,M,-33.5,M,,0000*67
$GPRMC,185111.000,A,3409.0529,N,11817.0176,W,0.00,,200306,,,A*66
$GPVTG,,T,,M,0.00,N,0.0,K,A*13
$GPGGA,185112.000,3409.0529,N,11817.0176,W,1,08,0.9,146.0,M,-33.5,M,,0000*64
$GPGSA,A,3,07,18,06,10,05,16,26,29,,,,,1.6,0.9,1.3*3A
$GPGSV,3,1,10,06,81,020,42,07,75,335,37,21,48,288,,18,35,207,43*75
$GPGSV,3,2,10,10,31,043,39,29,26,099,33,15,25,270,35,26,24,114,33*7E
$GPGSV,3,3,10,16,13,318,28,05,11,176,31*7A
$GPRMC,185112.000,A,3409.0529,N,11817.0176,W,0.00,,200306,,,A*65
$GPVTG,,T,,M,0.00,N,0.0,K,A*13
$GPGGA,185113.000,3409.0530,N,11817.0177,W,1,09,0.9,146.0,M,-33.5,M,,0000*6D
$GPRMC,185113.000,A,3409.0530,N,11817.0177,W,0.00,,200306,,,A*6D
$GPVTG,,T,,M,0.00,N,0.0,K,A*13
$GPGGA,185114.000,3409.0530,N,11817.0179,W,1,09,0.9,145.9,M,-33.5,M,,0000*6E
$GPRMC,185114.000,A,3409.0530,N,11817.0179,W,0.00,,200306,,,A*64
$GPVTG,,T,,M,0.00,N,0.0,K,A*13
$GPGGA,185115.000,3409.0531,N,11817.0180,W,1,09,0.9,145.9,M,-33.5,M,,0000*68
$GPRMC,185115.000,A,3409.0531,N,11817.0180,W,0.00,,200306,,,A*62
$GPVTG,,T,,M,0.00,N,0.0,K,A*13
$GPGGA,185116.000,3409.0532,N,11817.0183,W,1,09,0.9,145.8,M,-33.5,M,,0000*6A
$GPRMC,185116.000,A,3409.0532,N,11817.0183,W,0.00,,200306,,,A*61
$GPVTG,,T,,M,0.00,N,0.0,K,A*13
$GPGGA,185117.000,3409.0533,N,11817.0186,W,1,09,0.9,145.6,M,-33.5,M,,0000*61
$GPGSA,A,3,07,21,18,06,10,05,16,26,29,,,,1.6,0.9,1.3*39
$GPGSV,3,1,10,06,81,021,42,07,75,335,39,21,48,289,31,18,35,207,42*78
$GPGSV,3,2,10,10,31,043,39,29,26,099,35,15,25,270,36,26,24,114,33*7B
$GPGSV,3,3,10,16,13,318,28,05,11,176,27*7D
$GPRMC,185117.000,A,3409.0533,N,11817.0186,W,0.00,,200306,,,A*64
$GPVTG,,T,,M,0.00,N,0.0,K,A*13
$GPGGA,185118.000,3409.0534,N,11817.0188,W,1,09,0.9,145.5,M,-33.5,M,,0000*64
$GPRMC,185118.000,A,3409.0534,N,11817.0188,W,0.00,,200306,,,A*62
$GPVTG,,T,,M,0.00,N,0.0,K,A*13
$GPGGA,185119.000,3409.0535,N,11817.0189,W,1,09,0.9,145.4,M,-33.5,M,,0000*64
$GPRMC,185119.000,A,3409.0535,N,11817.0189,W,0.00,,200306,,,A*63
$GPVTG,,T,,M,0.00,N,0.0,K,A*13
$GPGGA,185120.000,3409.0535,N,11817.0191,W,1,09,0.9,145.3,M,-33.5,M,,0000*60
$GPRMC,185120.000,A,3409.0535,N,11817.0191,W,0.00,,200306,,,A*60
$GPVTG,,T,,M,0.00,N,0.0,K,A*13
$GPGGA,185121.000,3409.0536,N,11817.0193,W,1,09,0.9,145.2,M,-33.5,M,,0000*61
$GPRMC,185121.000,A,3409.0536,N,11817.0193,W,0.00,,200306,,,A*60
$GPVTG,,T,,M,0.00,N,0.0,K,A*13
$GPGGA,185122.000,3409.0537,N,11817.0194,W,1,10,0.8,145.1,M,-33.5,M,,0000*6E
$GPGSA,A,3,07,21,18,06,10,05,16,26,29,15,,,1.5,0.8,1.3*3F
$GPGSV,3,1,10,06,81,021,42,07,75,335,39,21,48,289,32,18,35,207,42*7B
$GPGSV,3,2,10,10,31,043,39,29,26,099,36,15,25,270,36,26,24,114,34*7F
$GPGSV,3,3,10,16,13,318,28,05,11,176,24*7E
$GPRMC,185122.000,A,3409.0537,N,11817.0194,W,0.00,,200306,,,A*65
$GPVTG,,T,,M,0.00,N,0.0,K,A*13
$GPGGA,185123.000,3409.0537,N,11817.0196,W,1,10,0.8,145.0,M,-33.5,M,,0000*6C
$GPRMC,185123.000,A,3409.0537,N,11817.0196,W,0.00,,200306,,,A*66
$GPVTG,,T,,M,0.00,N,0.0,K,A*13
$GPGGA,185124.000,3409.0538,N,11817.0197,W,1,10,0.8,145.0,M,-33.5,M,,0000*65
$GPRMC,185124.000,A,3409.0538,N,11817.0197,W,0.00,,200306,,,A*6F
$GPVTG,,T,,M,0.00,N,0.0,K,A*13
$GPGGA,185125.000,3409.0539,N,11817.0199,W,1,10,0.8,144.9,M,-33.5,M,,0000*63
$GPRMC,185125.000,A,3409.0539,N,11817.0199,W,0.00,,200306,,,A*61
$GPVTG,,T,,M,0.00,N,0.0,K,A*13
$GPGGA,185126.000,3409.0539,N,11817.0200,W,1,10,0.8,144.9,M,-33.5,M,,0000*63
$GPRMC,185126.000,A,3409.0539,N,11817.0200,W,0.00,,200306,,,A*61
$GPVTG,,T,,M,0.00,N,0.0,K,A*13
$GPGGA,185127.000,3409.0539,N,11817.0200,W,1,10,0.8,144.8,M,-33.5,M,,0000*63
$GPGSA,A,3,07,21,18,06,10,05,16,26,29,15,,,1.5,0.8,1.3*3F
$GPGSV,3,1,10,06,81,021,43,07,75,335,39,21,48,289,33,18,35,207,41*78
$GPGSV,3,2,10,10,31,043,38,29,26,099,36,15,25,270,35,26,24,114,34*7D
$GPGSV,3,3,10,16,13,318,27,05,11,176,25*70
$GPRMC,185127.000,A,3409.0539,N,11817.0200,W,0.00,,200306,,,A*60
$GPVTG,,T,,M,0.00,N,0.0,K,A*13
$GPGGA,185128.000,3409.0540,N,11817.0201,W,1,10,0.8,144.8,M,-33.5,M,,0000*63
$GPRMC,185128.000,A,3409.0540,N,11817.0201,W,0.00,,200306,,,A*60
$GPVTG,,T,,M,0.00,N,0.0,K,A*13
$GPGGA,185129.000,3409.0540,N,11817.0202,W,1,10,0.8,144.7,M,-33.5,M,,0000*6E
$GPRMC,185129.000,A,3409.0540,N,11817.0202,W,0.00,,200306,,,A*62
$GPVTG,,T,,M,0.00,N,0.0,K,A*13
$GPGGA,185130.000,3409.0540,N,11817.0202,W,1,10,0.8,144.6,M,-33.5,M,,0000*67
$GPRMC,185130.000,A,3409.0540,N,11817.0202,W,0.00,,200306,,,A*6A
$GPVTG,,T,,M,0.00,N,0.0,K,A*13
$GPGGA,185131.000,3409.0540,N,11817.0203,W,1,10,0.8,144.6,M,-33.5,M,,0000*67
$GPRMC,185131.000,A,3409.0540,N,11817.0203,W,0.00,,200306,,,A*6A
$GPVTG,,T,,M,0.00,N,0.0,K,A*13
$GPGGA,185132.000,3409.0540,N,11817.0203,W,1,10,0.8,144.5,M,-33.5,M,,0000*67
$GPGSA,A,3,07,21,18,06,10,05,16,26,29,15,,,1.5,0.8,1.3*3F
$GPGSV,3,1,10,06,81,021,43,07,75,335,39,21,48,289,33,18,35,207,41*78
$GPGSV,3,2,10,10,31,043,38,29,26,099,36,15,25,270,35,26,24,114,34*7D
$GPGSV,3,3,10,16,13,318,28,05,11,176,25*7F
$GPRMC,185132.000,A,3409.0540,N,11817.0203,W,0.00,,200306,,,A*69
$GPVTG,,T,,M,0.00,N,0.0,K,A*13
$GPGGA,185133.000,3409.0540,N,11817.0203,W,1,10,0.8,144.5,M,-33.5,M,,0000*66
$GPRMC,185133.000,A,3409.0540,N,11817.0203,W,0.00,,200306,,,A*68
$GPVTG,,T,,M,0.00,N,0.0,K,A*13
$GPGGA,185134.000,3409.0540,N,11817.0203,W,1,10,0.8,144.4,M,-33.5,M,,0000*60
$GPRMC,185134.000,A,3409.0540,N,11817.0203,W,0.00,,200306,,,A*6F
$GPVTG,,T,,M,0.00,N,0.0,K,A*13
$GPGGA,185135.000,3409.0540,N,11817.0204,W,1,10,0.8,144.4,M,-33.5,M,,0000*66
$GPRMC,185135.000,A,3409.0540,N,11817.0204,W,0.00,,200306,,,A*69
$GPVTG,,T,,M,0.00,N,0.0,K,A*13
$GPGGA,185136.000,3409.0541,N,11817.0204,W,1,10,0.8,144.4,M,-33.5,M,,0000*64
$GPRMC,185136.000,A,3409.0541,N,11817.0204,W,0.00,,200306,,,A*6B
$GPVTG,,T,,M,0.00,N,0.0,K,A*13
$GPGGA,185137.000,3409.0541,N,11817.0204,W,1,10,0.8,144.4,M,-33.5,M,,0000*65
$GPGSA,A,3,07,21,18,06,10,05,16,26,29,15,,,1.5,0.8,1.3*3F
$GPGSV,3,1,10,06,81,021,43,07,75,335,39,21,48,289,33,18,35,207,41*78
$GPGSV,3,2,10,10,31,043,38,29,26,099,36,15,25,270,35,26,24,114,35*7C
$GPGSV,3,3,10,16,13,318,28,05,11,176,24*7E
$GPRMC,185137.000,A,3409.0541,N,11817.0204,W,0.00,,200306,,,A*6A
$GPVTG,,T,,M,0.00,N,0.0,K,A*13
$GPGGA,185138.000,3409.0541,N,11817.0204,W,1,10,0.8,144.5,M,-33.5,M,,0000*6B
$GPRMC,185138.000,A,3409.0541,N,11817.0204,W,0.00,,200306,,,A*65
$GPVTG,,T,,M,0.00,N,0.0,K,A*13
$GPGGA,185139.000,3409.0541,N,11817.0205,W,1,10,0.8,144.5,M,-33.5,M,,0000*6B
$GPRMC,185139.000,A,3409.0541,N,11817.0205,W,0.00,,200306,,,A*65
$GPVTG,,T,,M,0.00,N,0.0,K,A*13
$GPGGA,185140.000,3409.0541,N,11817.0205,W,1,10,0.8,144.5,M,-33.5,M,,0000*65
$GPRMC,185140.000,A,3409.0541,N,11817.0205,W,0.00,,200306,,,A*6B
$GPVTG,,T,,M,0.00,N,0.0,K,A*13
$GPGGA,185141.000,3409.0542,N,11817.0205,W,1,10,0.8,144.5,M,-33.5,M,,0000*67
$GPRMC,185141.000,A,3409.0542,N,11817.0205,W,0.00,,200306,,,A*69
$GPVTG,,T,,M,0.00,N,0.0,K,A*13
$GPGGA,185142.000,3409.0542,N,11817.0205,W,1,10,0.8,144.5,M,-33.5,M,,0000*64
$GPGSA,A,3,07,21,18,06,10,05,16,26,29,15,,,1.5,0.8,1.3*3F
$GPGSV,3,1,10,06,81,021,43,07,75,335,40,21,48,289,33,18,35,207,41*76
$GPGSV,3,2,10,10,31,043,38,29,26,099,37,15,25,270,35,26,24,114,35*7D
$GPGSV,3,3,10,16,13,318,28,05,11,176,23*79
$GPRMC,185142.000,A,3409.0542,N,11817.0205,W,0.00,,200306,,,A*6A
$GPVTG,,T,,M,0.00,N,0.0,K,A*13
$GPGGA,185143.000,3409.0542,N,11817.0205,W,1,10,0.8,144.6,M,-33.5,M,,0000*66
$GPRMC,185143.000,A,3409.0542,N,11817.0205,W,0.00,,200306,,,A*6B
$GPVTG,,T,,M,0.00,N,0.0,K,A*13
$GPGGA,185144.000,3409.0542,N,11817.0205,W,1,10,0.8,144.6,M,-33.5,M,,0000*61
$GPRMC,185144.000,A,3409.0542,N,11817.0205,W,0.00,,200306,,,A*6C
$GPVTG,,T,,M,0.00,N,0.0,K,A*13
$GPGGA,185145.000,3409.0542,N,11817.0205,W,1,10,0.8,144.7,M,-33.5,M,,0000*61
$GPRMC,185145.000,A,3409.0542,N,11817.0205,W,0.00,,200306,,,A*6D
$GPVTG,,T,,M,0.00,N,0.0,K,A*13
$GPGGA,185146.000,3409.0542,N,11817.0205,W,1,10,0.8,144.7,M,-33.5,M,,0000*62
$GPRMC,185146.000,A,3409.0542,N,11817.0205,W,0.00,,200306,,,A*6E
$GPVTG,,T,,M,0.00,N,0.0,K,A*13
$GPGGA,185147.000,3409.0542,N,11817.0205,W,1,10,0.8,144.7,M,-33.5,M,,0000*63
$GPGSA,A,3,07,21,18,06,10,05,16,26,29,15,,,1.5,0.8,1.3*3F
$GPGSV,3,1,10,06,82,022,44,07,75,335,40,21,48,289,33,18,36,207,41*72
$GPGSV,3,2,10,10,31,043,39,29,27,099,37,15,25,270,36,26,24,114,36*7D
$GPGSV,3,3,10,16,13,318,29,05,11,176,19*71
$GPRMC,185147.000,A,3409.0542,N,11817.0205,W,0.00,,200306,,,A*6F
$GPVTG,,T,,M,0.00,N,0.0,K,A*13
$GPGGA,185148.000,3409.0542,N,11817.0205,W,1,10,0.8,144.8,M,-33.5,M,,0000*63
$GPRMC,185148.000,A,3409.0542,N,11817.0205,W,0.00,,200306,,,A*60
$GPVTG,,T,,M,0.00,N,0.0,K,A*13
$GPGGA,185149.000,3409.0542,N,11817.0205,W,1,10,0.8,144.8,M,-33.5,M,,0000*62
$GPRMC,185149.000,A,3409.0542,N,11817.0205,W,0.00,,200306,,,A*61
$GPVTG,,T,,M,0.00,N,0.0,K,A*13
$GPGGA,185150.000,3409.0542,N,11817.0205,W,1,10,0.8,144.8,M,-33.5,M,,0000*6A
$GPRMC,185150.000,A,3409.0542,N,11817.0205,W,0.00,,200306,,,A*69
$GPVTG,,T,,M,0.00,N,0.0,K,A*13
$GPGGA,185151.000,3409.0542,N,11817.0205,W,1,10,0.8,144.8,M,-33.5,M,,0000*6B
$GPRMC,185151.000,A,3409.0542,N,11817.0205,W,0.00,,200306,,,A*68
$GPVTG,,T,,M,0.00,N,0.0,K,A*13
$GPGGA,185152.000,3409.0542,N,11817.0205,W,1,10,0.8,144.9,M,-33.5,M,,0000*69
$GPGSA,A,3,07,21,18,06,10,05,16,26,29,15,,,1.5,0.8,1.3*3F
$GPGSV,3,1,10,06,82,022,44,07,75,335,39,21,48,289,33,18,36,207,42*7F
$GPGSV,3,2,10,10,31,043,39,29,27,099,36,15,25,270,36,26,24,114,36*7C
$GPGSV,3,3,10,16,13,318,30,05,11,176,20*73
$GPRMC,185152.000,A,3409.0542,N,11817.0205,W,0.00,,200306,,,A*6B
$GPVTG,,T,,M,0.00,N,0.0,K,A*13
$GPGGA,185153.000,3409.0542,N,11817.0205,W,1,10,0.8,144.9,M,-33.5,M,,0000*68
$GPRMC,185153.000,A,3409.0542,N,11817.0205,W,0.00,,200306,,,A*6A
$GPVTG,,T,,M,0.00,N,0.0,K,A*13
$GPGGA,185154.000,3409.0543,N,11817.0205,W,1,10,0.8,145.0,M,-33.5,M,,0000*66
$GPRMC,185154.000,A,3409.0543,N,11817.0205,W,0.00,,200306,,,A*6C
$GPVTG,,T,,M,0.00,N,0.0,K,A*13
$GPGGA,185155.000,3409.0543,N,11817.0205,W,1,10,0.8,145.1,M,-33.5,M,,0000*66
$GPRMC,185155.000,A,3409.0543,N,11817.0205,W,0.00,,200306,,,A*6D
$GPVTG,,T,,M,0.00,N,0.0,K,A*13
$GPGGA,185156.000,3409.0543,N,11817.0205,W,1,10,0.8,145.2,M,-33.5,M,,0000*66
$GPRMC,185156.000,A,3409.0543,N,11817.0205,W,0.00,,200306,,,A*6E
$GPVTG,,T,,M,0.00,N,0.0,K,A*13
$GPGGA,185157.000,3409.0543,N,11817.0205,W,1,10,0.8,145.2,M,-33.5,M,,0000*67
$GPGSA,A,3,07,21,18,06,10,05,16,26,29,15,,,1.5,0.8,1.3*3F
$GPGSV,3,1,10,06,82,022,44,07,75,335,39,21,48,289,34,18,36,207,42*78
$GPGSV,3,2,10,10,31,043,39,29,27,099,36,15,25,270,35,26,24,114,35*7C
$GPGSV,3,3,10,16,13,318,30,05,11,176,20*73
$GPRMC,185157.000,A,3409.0543,N,11817.0205,W,0.00,,200306,,,A*6F
$GPVTG,,T,,M,0.00,N,0.0,K,A*13
$GPGGA,185158.000,3409.0543,N,11817.0205,W,1,10,0.8,145.3,M,-33.5,M,,0000*69
$GPRMC,185158.000,A,3409.0543,N,11817.0205,W,0.00,,200306,,,A*60
$GPVTG,,T,,M,0.00,N,0.0,K,A*13
$GPGGA,185159.000,3409.0543,N,11817.0205,W,1,10,0.8,145.4,M,-33.5,M,,0000*6F
$GPRMC,185159.000,A,3409.0543,N,11817.0205,W,0.00,,200306,,,A*61
$GPVTG,,T,,M,0.00,N,0.0,K,A*13
$GPGGA,185200.000,3409.0543,N,11817.0205,W,1,10,0.8,145.4,M,-33.5,M,,0000*60
$GPRMC,185200.000,A,3409.0543,N,11817.0205,W,0.00,,200306,,,A*6E
$GPVTG,,T,,M,0.00,N,0.0,K,A*13
$GPGGA,185201.000,3409.0543,N,11817.0205,W,1,10,0.8,145.4,M,-33.5,M,,0000*61
$GPRMC,185201.000,A,3409.0543,N,11817.0205,W,0.00,,200306,,,A*6F
$GPVTG,,T,,M,0.00,N,0.0,K,A*13
$GPGGA,185202.000,3409.0543,N,11817.0205,W,1,10,0.8,145.4,M,-33.5,M,,0000*62
$GPGSA,A,3,07,21,18,06,10,05,16,26,29,15,,,1.5,0.8,1.3*3F
$GPGSV,3,1,10,06,82,022,44,07,75,335,39,21,48,289,34,18,36,207,42*78
$GPGSV,3,2,10,10,31,043,38,29,27,099,35,15,25,270,34,26,24,114,35*7F
$GPGSV,3,3,10,16,13,318,29,05,11,176,22*79
$GPRMC,185202.000,A,3409.0543,N,11817.0205,W,0.00,,200306,,,A*6C
$GPVTG,,T,,M,0.00,N,0.0,K,A*13
$GPGGA,185203.000,3409.0543,N,11817.0205,W,1,10,0.8,145.4,M,-33.5,M,,0000*63
$GPRMC,185203.000,A,3409.0543,N,11817.0205,W,0.00,,200306,,,A*6D
$GPVTG,,T,,M,0.00,N,0.0,K,A*13
$GPGGA,185204.000,3409.0544,N,11817.0205,W,1,10,0.8,145.4,M,-33.5,M,,0000*63
$GPRMC,185204.000,A,3409.0544,N,11817.0205,W,0.00,,200306,,,A*6D
$GPVTG,,T,,M,0.00,N,0.0,K,A*13
$GPGGA,185205.000,3409.0544,N,11817.0205,W,1,10,0.8,145.4,M,-33.5,M,,0000*62
$GPRMC,185205.000,A,3409.0544,N,11817.0205,W,0.00,,200306,,,A*6C
$GPVTG,,T,,M,0.00,N,0.0,K,A*13
$GPGGA,185206.000,3409.0544,N,11817.0204,W,1,10,0.8,145.4,M,-33.5,M,,0000*60
$GPRMC,185206.000,A,3409.0544,N,11817.0204,W,0.00,,200306,,,A*6E
$GPVTG,,T,,M,0.00,N,0.0,K,A*13
$GPGGA,185207.000,3409.0544,N,11817.0204,W,1,10,0.8,145.5,M,-33.5,M,,0000*60
$GPGSA,A,3,07,21,18,06,10,05,16,26,29,15,,,1.5,0.8,1.3*3F
$GPGSV,3,1,10,06,82,022,44,07,75,335,40,21,48,289,35,18,36,207,41*74
$GPGSV,3,2,10,10,31,043,39,29,27,099,35,15,25,270,34,26,24,114,35*7E
$GPGSV,3,3,10,16,13,318,28,05,11,176,20*7A
$GPRMC,185207.000,A,3409.0544,N,11817.0204,W,0.00,,200306,,,A*6F
$GPVTG,,T,,M,0.00,N,0.0,K,A*13
$GPGGA,185208.000,3409.0544,N,11817.0204,W,1,10,0.8,145.5,M,-33.5,M,,0000*6F
$GPRMC,185208.000,A,3409.0544,N,11817.0204,W,0.00,,200306,,,A*60
$GPVTG,,T,,M,0.00,N,0.0,K,A*13
$GPGGA,185209.000,3409.0544,N,11817.0204,W,1,10,0.8,145.5,M,-33.5,M,,0000*6E
$GPRMC,185209.000,A,3409.0544,N,11817.0204,W,0.00,,200306,,,A*61
$GPVTG,,T,,M,0.00,N,0.0,K,A*13
$GPGGA,185210.000,3409.0544,N,11817.0204,W,1,10,0.8,145.6,M,-33.5,M,,0000*65
$GPRMC,185210.000,A,3409.0544,N,11817.0204,W,0.00,,200306,,,A*69
$GPVTG,,T,,M,0.00,N,0.0,K,A*13
$GPGGA,185211.000,3409.0544,N,11817.0204,W,1,10,0.8,145.5,M,-33.5,M,,0000*67
$GPRMC,185211.000,A,3409.0544,N,11817.0204,W,0.00,,200306,,,A*68
$GPVTG,,T,,M,0.00,N,0.0,K,A*13
$GPGGA,185212.000,3409.0544,N,11817.0204,W,1,10,0.8,145.5,M,-33.5,M,,0000*64
$GPGSA,A,3,07,21,18,06,10,05,16,26,29,15,,,1.5,0.8,1.3*3F
$GPGSV,3,1,10,06,82,022,44,07,75,335,40,21,48,289,35,18,36,207,40*75
$GPGSV,3,2,10,10,31,043,39,29,27,099,35,15,25,270,35,26,24,114,35*7F
$GPGSV,3,3,10,16,13,318,28,05,11,176,22*78
$GPRMC,185212.000,A,3409.0544,N,11817.0204,W,0.00,,200306,,,A*6B
$GPVTG,,T,,M,0.00,N,0.0,K,A*13
$GPGGA,185213.000,3409.0544,N,11817.0203,W,1,10,0.8,145.6,M,-33.5,M,,0000*61
$GPRMC,185213.000,A,3409.0544,N,11817.0203,W,0.00,,200306,,,A*6D
$GPVTG,,T,,M,0.00,N,0.0,K,A*13
$GPGGA,185214.000,3409.0544,N,11817.0203,W,1,10,0.8,145.6,M,-33.5,M,,0000*66
$GPRMC,185214.000,A,3409.0544,N,11817.0203,W,0.00,,200306,,,A*6A
$GPVTG,,T,,M,0.00,N,0.0,K,A*13
$GPGGA,185215.000,3409.0544,N,11817.0203,W,1,10,0.8,145.6,M,-33.5,M,,0000*67
$GPRMC,185215.000,A,3409.0544,N,11817.0203,W,0.00,,200306,,,A*6B
$GPVTG,,T,,M,0.00,N,0.0,K,A*13
$GPGGA,185216.000,3409.0544,N,11817.0202,W,1,10,0.8,145.6,M,-33.5,M,,0000*65
$GPRMC,185216.000,A,3409.0544,N,11817.0202,W,0.00,,200306,,,A*69
$GPVTG,,T,,M,0.00,N,0.0,K,A*13
$GPGGA,185217.000,3409.0542,N,11817.0199,W,1,10,0.8,145.6,M,-33.5,M,,0000*63
$GPGSA,A,3,07,21,18,06,10,05,16,26,29,15,,,1.5,0.8,1.3*3F
$GPGSV,3,1,10,06,82,024,44,07,75,336,40,21,48,289,35,18,36,207,40*70
$GPGSV,3,2,10,10,31,043,39,29,27,099,34,15,25,271,35,26,24,114,34*7E
$GPGSV,3,3,10,16,13,318,28,05,11,176,30*7B
$GPRMC,185217.000,A,3409.0542,N,11817.0199,W,0.00,,200306,,,A*6F
$GPVTG,,T,,M,0.00,N,0.0,K,A*13
$GPGGA,185218.000,3409.0541,N,11817.0188,W,1,10,0.8,145.6,M,-33.5,M,,0000*6F
$GPRMC,185218.000,A,3409.0541,N,11817.0188,W,4.38,93.89,200306,,,A*49
$GPVTG,93.89,T,,M,4.38,N,8.1,K,A*30
$GPGGA,185219.000,3409.0542,N,11817.0170,W,1,10,0.8,145.7,M,-33.5,M,,0000*6B
$GPRMC,185219.000,A,3409.0542,N,11817.0170,W,6.41,77.21,200306,,,A*48
$GPVTG,77.21,T,,M,6.41,N,11.9,K,A*04
$GPGGA,185220.000,3409.0552,N,11817.0150,W,1,10,0.8,145.8,M,-33.5,M,,0000*6D
$GPRMC,185220.000,A,3409.0552,N,11817.0150,W,7.57,50.39,200306,,,A*4B
$GPVTG,50.39,T,,M,7.57,N,14.0,K,A*02
$GPGGA,185221.000,3409.0569,N,11817.0134,W,1,10,0.8,145.9,M,-33.5,M,,0000*67
$GPRMC,185221.000,A,3409.0569,N,11817.0134,W,7.91,27.85,200306,,,A*4D
$GPVTG,27.85,T,,M,7.91,N,14.6,K,A*09
$GPGGA,185222.000,3409.0590,N,11817.0128,W,1,10,0.8,145.9,M,-33.5,M,,0000*6F
$GPGSA,A,3,07,21,18,06,10,05,16,26,29,15,,,1.5,0.8,1.3*3F
$GPGSV,3,1,10,06,82,024,43,07,75,336,41,21,48,289,34,18,36,207,33*73
$GPGSV,3,2,10,10,31,043,35,29,27,099,34,15,25,271,35,26,24,114,35*73
$GPGSV,3,3,10,16,13,318,31,05,11,176,27*75
$GPRMC,185222.000,A,3409.0590,N,11817.0128,W,7.94,3.89,200306,,,A*7A
$GPVTG,3.89,T,,M,7.94,N,14.7,K,A*37
$GPGGA,185223.000,3409.0613,N,11817.0133,W,1,10,0.8,145.9,M,-33.5,M,,0000*6C
$GPRMC,185223.000,A,3409.0613,N,11817.0133,W,8.32,337.72,200306,,,A*7A
$GPVTG,337.72,T,,M,8.32,N,15.4,K,A*36
$GPGGA,185224.000,3409.0633,N,11817.0150,W,1,10,0.8,146.0,M,-33.5,M,,0000*66
$GPRMC,185224.000,A,3409.0633,N,11817.0150,W,9.31,316.90,200306,,,A*77
$GPVTG,316.90,T,,M,9.31,N,17.2,K,A*3F
$GPGGA,185225.000,3409.0650,N,11817.0174,W,1,10,0.8,146.1,M,-33.5,M,,0000*65
$GPRMC,185225.000,A,3409.0650,N,11817.0174,W,10.08,303.74,200306,,,A*49
$GPVTG,303.74,T,,M,10.08,N,18.7,K,A*09
$GPGGA,185226.000,3409.0662,N,11817.0206,W,1,10,0.8,146.3,M,-33.5,M,,0000*63
$GPRMC,185226.000,A,3409.0662,N,11817.0206,W,10.69,291.73,200306,,,A*47
$GPVTG,291.73,T,,M,10.69,N,19.8,K,A*0D
$GPGGA,185227.000,3409.0671,N,11817.0241,W,1,10,0.8,146.3,M,-33.5,M,,0000*63
$GPGSA,A,3,07,21,18,06,10,05,16,26,29,15,,,1.5,0.8,1.3*3F
$GPGSV,3,1,10,06,82,024,43,07,75,336,42,21,48,289,39,18,36,207,35*7B
$GPGSV,3,2,10,10,31,043,36,29,27,099,33,15,25,271,33,26,24,114,33*77
$GPGSV,3,3,10,16,13,318,26,05,11,176,34*71
$GPRMC,185227.000,A,3409.0671,N,11817.0241,W,11.54,283.85,200306,,,A*42
$GPVTG,283.85,T,,M,11.54,N,21.4,K,A*0F
$GPGGA,185228.000,3409.0677,N,11817.0280,W,1,10,0.8,146.3,M,-33.5,M,,0000*67
$GPRMC,185228.000,A,3409.0677,N,11817.0280,W,11.71,279.12,200306,,,A*4A
$GPVTG,279.12,T,,M,11.71,N,21.7,K,A*00
$GPGGA,185229.000,3409.0682,N,11817.0320,W,1,10,0.8,146.3,M,-33.5,M,,0000*67
$GPRMC,185229.000,A,3409.0682,N,11817.0320,W,11.44,279.69,200306,,,A*40
$GPVTG,279.69,T,,M,11.44,N,21.2,K,A*0F
$GPGGA,185230.000,3409.0688,N,11817.0357,W,1,10,0.8,146.3,M,-33.5,M,,0000*65
$GPRMC,185230.000,A,3409.0688,N,11817.0357,W,10.72,282.88,200306,,,A*4D
$GPVTG,282.88,T,,M,10.72,N,19.9,K,A*00
$GPGGA,185231.000,3409.0695,N,11817.0390,W,1,10,0.8,146.3,M,-33.5,M,,0000*63
$GPRMC,185231.000,A,3409.0695,N,11817.0390,W,9.64,288.59,200306,,,A*72
$GPVTG,288.59,T,,M,9.64,N,17.8,K,A*36
$GPGGA,185232.000,3409.0704,N,11817.0419,W,1,10,0.8,146.3,M,-33.5,M,,0000*6F
$GPGSA,A,3,07,21,18,06,10,05,16,26,29,15,,,1.5,0.8,1.3*3F
$GPGSV,3,1,10,06,82,024,42,07,75,336,43,21,48,289,40,18,36,207,32*72
$GPGSV,3,2,10,10,31,043,37,29,27,099,30,15,25,271,33,26,24,114,33*75
$GPGSV,3,3,10,16,13,318,27,05,11,176,30*74
$GPRMC,185232.000,A,3409.0704,N,11817.0419,W,8.27,298.96,200306,,,A*7A
$GPVTG,298.96,T,,M,8.27,N,15.3,K,A*3B
$GPGGA,185233.000,3409.0717,N,11817.0438,W,1,10,0.8,146.3,M,-33.5,M,,0000*6F
$GPRMC,185233.000,A,3409.0717,N,11817.0438,W,6.52,316.57,200306,,,A*7C
$GPVTG,316.57,T,,M,6.52,N,12.1,K,A*38
$GPGGA,185234.000,3409.0730,N,11817.0447,W,1,10,0.8,146.0,M,-33.5,M,,0000*66
$GPRMC,185234.000,A,3409.0730,N,11817.0447,W,5.16,336.43,200306,,,A*72
$GPVTG,336.43,T,,M,5.16,N,9.5,K,A*02
$GPGGA,185235.000,3409.0742,N,11817.0450,W,1,10,0.8,145.9,M,-33.5,M,,0000*6E
$GPRMC,185235.000,A,3409.0742,N,11817.0450,W,3.69,354.02,200306,,,A*7F
$GPVTG,354.02,T,,M,3.69,N,6.8,K,A*0F
$GPGGA,185236.000,3409.0750,N,11817.0450,W,1,10,0.8,145.7,M,-33.5,M,,0000*60
$GPRMC,185236.000,A,3409.0750,N,11817.0450,W,0.00,354.02,200306,,,A*73
$GPVTG,354.02,T,,M,0.00,N,0.0,K,A*0D
$GPGGA,185237.000,3409.0753,N,11817.0450,W,1,10,0.8,145.7,M,-33.5,M,,0000*62
$GPGSA,A,3,07,21,18,06,10,05,16,26,29,15,,,1.5,0.8,1.3*3F
$GPGSV,3,1,10,06,82,024,42,07,75,336,43,21,48,289,39,18,36,207,36*78
$GPGSV,3,2,10,10,31,043,37,29,27,099,39,15,25,271,41,26,24,114,40*7D
$GPGSV,3,3,10,16,13,318,27,05,11,176,25*70
$GPRMC,185237.000,A,3409.0753,N,11817.0450,W,0.00,354.02,200306,,,A*71
$GPVTG,354.02,T,,M,0.00,N,0.0,K,A*0D
$GPGGA,185238.000,3409.0753,N,11817.0449,W,1,10,0.8,145.7,M,-33.5,M,,0000*65
$GPRMC,185238.000,A,3409.0753,N,11817.0449,W,0.00,354.02,200306,,,A*76
$GPVTG,354.02,T,,M,0.00,N,0.0,K,A*0D
$GPGGA,185239.000,3409.0753,N,11817.0449,W,1,09,1.0,145.7,M,-33.5,M,,0000*65
$GPRMC,185239.000,A,3409.0753,N,11817.0449,W,0.00,354.02,200306,,,A*77
$GPVTG,354.02,T,,M,0.00,N,0.0,K,A*0D
$GPGGA,185240.000,3409.0754,N,11817.0449,W,1,09,1.0,145.8,M,-33.5,M,,0000*63
$GPRMC,185240.000,A,3409.0754,N,11817.0449,W,0.00,354.02,200306,,,A*7E
$GPVTG,354.02,T,,M,0.00,N,0.0,K,A*0D
$GPGGA,185241.000,3409.0755,N,11817.0449,W,1,10,0.8,145.8,M,-33.5,M,,0000*62
$GPRMC,185241.000,A,3409.0755,N,11817.0449,W,0.00,354.02,200306,,,A*7E
$GPVTG,354.02,T,,M,0.00,N,0.0,K,A*0D
$GPGGA,185242.000,3409.0759,N,11817.0448,W,1,10,0.8,146.0,M,-33.5,M,,0000*67
$GPGSA,A,3,07,21,18,06,10,05,16,26,29,15,,,1.5,0.8,1.3*3F
$GPGSV,3,1,10,06,82,024,41,07,75,336,43,21,48,289,36,18,36,207,31*73
$GPGSV,3,2,10,10,31,043,36,29,27,099,28,15,25,271,32,26,24,114,41*79
$GPGSV,3,3,10,16,13,318,24,05,11,176,25*73
$GPRMC,185242.000,A,3409.0759,N,11817.0448,W,2.48,3.20,200306,,,A*7F
$GPVTG,3.20,T,,M,2.48,N,4.6,K,A*00
$GPGGA,185243.000,3409.0767,N,11817.0448,W,1,10,0.8,146.0,M,-33.5,M,,0000*6B
$GPRMC,185243.000,A,3409.0767,N,11817.0448,W,3.11,4.04,200306,,,A*7F
$GPVTG,4.04,T,,M,3.11,N,5.8,K,A*03
$GPGGA,185244.000,3409.0773,N,11817.0447,W,1,10,0.8,146.1,M,-33.5,M,,0000*67
$GPRMC,185244.000,A,3409.0773,N,11817.0447,W,0.00,4.04,200306,,,A*71
$GPVTG,4.04,T,,M,0.00,N,0.0,K,A*0D
$GPGGA,185245.000,3409.0775,N,11817.0446,W,1,10,0.8,146.2,M,-33.5,M,,0000*62
$GPRMC,185245.000,A,3409.0775,N,11817.0446,W,0.00,4.04,200306,,,A*77
$GPVTG,4.04,T,,M,0.00,N,0.0,K,A*0D
$GPGGA,185246.000,3409.0775,N,11817.0447,W,1,10,0.8,146.2,M,-33.5,M,,0000*60
$GPRMC,185246.000,A,3409.0775,N,11817.0447,W,0.00,4.04,200306,,,A*75
$GPVTG,4.04,T,,M,0.00,N,0.0,K,A*0D
$GPGGA,185247.000,3409.0775,N,11817.0447,W,1,10,0.8,146.2,M,-33.5,M,,0000*61
$GPGSA,A,3,07,21,18,06,10,05,16,26,29,15,,,1.5,0.8,1.3*3F
$GPGSV,3,1,10,06,82,025,41,07,75,336,43,21,48,289,19,18,36,207,36*78
$GPGSV,3,2,10,10,30,043,38,29,27,098,31,15,25,271,35,26,24,113,40*7E
$GPGSV,3,3,10,16,14,318,24,05,11,176,25*74
$GPRMC,185247.000,A,3409.0775,N,11817.0447,W,0.00,4.04,200306,,,A*74
$GPVTG,4.04,T,,M,0.00,N,0.0,K,A*0D
$GPGGA,185248.000,3409.0775,N,11817.0447,W,1,10,0.8,146.2,M,-33.5,M,,0000*6E
$GPRMC,185248.000,A,3409.0775,N,11817.0447,W,0.00,4.04,200306,,,A*7B
$GPVTG,4.04,T,,M,0.00,N,0.0,K,A*0D
$GPGGA,185249.000,3409.0776,N,11817.0448,W,1,10,0.8,146.1,M,-33.5,M,,0000*60
$GPRMC,185249.000,A,3409.0776,N,11817.0448,W,0.00,4.04,200306,,,A*76
$GPVTG,4.04,T,,M,0.00,N,0.0,K,A*0D
$GPGGA,185250.000,3409.0776,N,11817.0449,W,1,10,0.8,146.2,M,-33.5,M,,0000*6A
$GPRMC,185250.000,A,3409.0776,N,11817.0449,W,0.00,4.04,200306,,,A*7F
$GPVTG,4.04,T,,M,0.00,N,0.0,K,A*0D
$GPGGA,185251.000,3409.0776,N,11817.0448,W,1,10,0.8,146.3,M,-33.5,M,,0000*6B
$GPRMC,185251.000,A,3409.0776,N,11817.0448,W,0.00,4.04,200306,,,A*7F
$GPVTG,4.04,T,,M,0.00,N,0.0,K,A*0D
$GPGGA,185252.000,3409.0782,N,11817.0448,W,1,10,0.8,146.3,M,-33.5,M,,0000*63
$GPGSA,A,3,07,21,18,06,10,05,16,26,29,15,,,1.5,0.8,1.3*3F
$GPGSV,3,1,10,06,82,025,41,07,75,336,43,21,48,289,27,18,36,207,37*74
$GPGSV,3,2,10,10,30,043,39,29,27,098,30,15,25,271,28,26,24,113,39*7C
$GPGSV,3,3,10,16,14,318,24,05,11,176,26*77
$GPRMC,185252.000,A,3409.0782,N,11817.0448,W,3.84,359.91,200306,,,A*7F
$GPVTG,359.91,T,,M,3.84,N,7.1,K,A*03
$GPGGA,185253.000,3409.0798,N,11817.0451,W,1,10,0.8,146.2,M,-33.5,M,,0000*60
$GPRMC,185253.000,A,3409.0798,N,11817.0451,W,7.06,347.20,200306,,,A*76
$GPVTG,347.20,T,,M,7.06,N,13.1,K,A*3D
$GPGGA,185254.000,3409.0818,N,11817.0461,W,1,10,0.8,146.3,M,-33.5,M,,0000*62
$GPRMC,185254.000,A,3409.0818,N,11817.0461,W,8.95,328.34,200306,,,A*7C
$GPVTG,328.34,T,,M,8.95,N,16.6,K,A*36
$GPGGA,185255.000,3409.0837,N,11817.0483,W,1,10,0.8,146.4,M,-33.5,M,,0000*65
$GPRMC,185255.000,A,3409.0837,N,11817.0483,W,10.72,307.26,200306,,,A*42
$GPVTG,307.26,T,,M,10.72,N,19.9,K,A*08
$GPGGA,185256.000,3409.0851,N,11817.0518,W,1,10,0.8,146.6,M,-33.5,M,,0000*67
$GPRMC,185256.000,A,3409.0851,N,11817.0518,W,13.04,292.15,200306,,,A*4D
$GPVTG,292.15,T,,M,13.04,N,24.2,K,A*02
$GPGGA,185257.000,3409.0864,N,11817.0563,W,1,10,0.8,146.7,M,-33.5,M,,0000*6D
$GPGSA,A,3,07,21,18,06,10,05,16,26,29,15,,,1.5,0.8,1.3*3F
$GPGSV,3,1,10,06,82,025,41,07,75,336,42,21,48,289,39,18,36,207,36*7B
$GPGSV,3,2,10,10,30,043,38,29,27,098,30,15,25,271,31,26,24,113,34*78
$GPGSV,3,3,10,16,14,318,21,05,11,176,35*70
$GPRMC,185257.000,A,3409.0864,N,11817.0563,W,14.90,287.35,200306,,,A*4A
$GPVTG,287.35,T,,M,14.90,N,27.6,K,A*09
$GPGGA,185258.000,3409.0876,N,11817.0616,W,1,10,0.8,146.5,M,-33.5,M,,0000*62
$GPRMC,185258.000,A,3409.0876,N,11817.0616,W,16.72,285.09,200306,,,A*44
$GPVTG,285.09,T,,M,16.72,N,31.0,K,A*0B
$GPGGA,185259.000,3409.0889,N,11817.0675,W,1,10,0.8,146.6,M,-33.5,M,,0000*65
$GPRMC,185259.000,A,3409.0889,N,11817.0675,W,18.41,285.41,200306,,,A*42
$GPVTG,285.41,T,,M,18.41,N,34.1,K,A*0D
$GPGGA,185300.000,3409.0903,N,11817.0739,W,1,10,0.8,146.7,M,-33.5,M,,0000*63
$GPRMC,185300.000,A,3409.0903,N,11817.0739,W,19.60,284.73,200306,,,A*47
$GPVTG,284.73,T,,M,19.60,N,36.3,K,A*0F
$GPGGA,185301.000,3409.0916,N,11817.0806,W,1,10,0.8,146.8,M,-33.5,M,,0000*6A
$GPRMC,185301.000,A,3409.0916,N,11817.0806,W,20.46,284.48,200306,,,A*47
$GPVTG,284.48,T,,M,20.46,N,37.9,K,A*02
$GPGGA,185302.000,3409.0931,N,11817.0874,W,1,10,0.8,147.0,M,-33.5,M,,0000*60
$GPGSA,A,3,07,21,18,06,10,05,16,26,29,15,,,1.5,0.8,1.3*3F
$GPGSV,3,1,10,06,82,025,33,07,75,336,40,21,48,289,31,18,36,207,41*74
$GPGSV,3,2,10,10,30,043,34,29,27,098,29,15,25,271,31,26,24,113,25*7C
$GPGSV,3,3,10,16,14,318,22,05,11,176,33*75
$GPRMC,185302.000,A,3409.0931,N,11817.0874,W,21.29,285.35,200306,,,A*47
$GPVTG,285.35,T,,M,21.29,N,39.4,K,A*02
$GPGGA,185303.000,3409.0947,N,11817.0945,W,1,10,0.8,147.1,M,-33.5,M,,0000*62
$GPRMC,185303.000,A,3409.0947,N,11817.0945,W,21.58,285.72,200306,,,A*41
$GPVTG,285.72,T,,M,21.58,N,40.0,K,A*0D
$GPGGA,185304.000,3409.0965,N,11817.1016,W,1,10,0.8,147.2,M,-33.5,M,,0000*68
$GPRMC,185304.000,A,3409.0965,N,11817.1016,W,22.27,287.08,200306,,,A*4C
$GPVTG,287.08,T,,M,22.27,N,41.2,K,A*0A
$GPGGA,185305.000,3409.0983,N,11817.1089,W,1,10,0.8,147.4,M,-33.5,M,,0000*61
$GPRMC,185305.000,A,3409.0983,N,11817.1089,W,22.30,286.03,200306,,,A*4F
$GPVTG,286.03,T,,M,22.30,N,41.3,K,A*07
$GPGGA,185306.000,3409.1001,N,11817.1161,W,1,10,0.8,147.7,M,-33.5,M,,0000*64
$GPRMC,185306.000,A,3409.1001,N,11817.1161,W,22.17,287.05,200306,,,A*4B
$GPVTG,287.05,T,,M,22.17,N,41.1,K,A*07
$GPGGA,185307.000,3409.1018,N,11817.1236,W,1,10,0.8,148.0,M,-33.5,M,,0000*64
$GPGSA,A,3,07,21,18,06,10,05,16,26,29,15,,,1.5,0.8,1.3*3F
$GPGSV,3,1,10,06,82,025,43,07,75,336,41,21,48,289,39,18,36,207,27*7A
$GPGSV,3,2,10,10,30,043,34,29,27,098,23,15,25,271,31,26,24,113,36*74
$GPGSV,3,3,10,16,14,318,20,05,11,176,26*73
$GPRMC,185307.000,A,3409.1018,N,11817.1236,W,23.06,284.82,200306,,,A*4E
$GPVTG,284.82,T,,M,23.06,N,42.7,K,A*0F
$GPGGA,185308.000,3409.1036,N,11817.1312,W,1,10,0.8,148.2,M,-33.5,M,,0000*62
$GPRMC,185308.000,A,3409.1036,N,11817.1312,W,23.67,287.47,200306,,,A*47
$GPVTG,287.47,T,,M,23.67,N,43.8,K,A*0C
$GPGGA,185309.000,3409.1058,N,11817.1390,W,1,10,0.8,148.0,M,-33.5,M,,0000*63
$GPRMC,185309.000,A,3409.1058,N,11817.1390,W,24.22,289.68,200306,,,A*41
$GPVTG,289.68,T,,M,24.22,N,44.9,K,A*0F
$GPGGA,185310.000,3409.1083,N,11817.1468,W,1,10,0.8,148.0,M,-33.5,M,,0000*6D
$GPRMC,185310.000,A,3409.1083,N,11817.1468,W,25.03,293.89,200306,,,A*49
$GPVTG,293.89,T,,M,25.03,N,46.4,K,A*06
$GPGGA,185311.000,3409.1115,N,11817.1547,W,1,10,0.8,147.8,M,-33.5,M,,0000*69
$GPRMC,185311.000,A,3409.1115,N,11817.1547,W,25.94,297.84,200306,,,A*4D
$GPVTG,297.84,T,,M,25.94,N,48.0,K,A*0B
$GPGGA,185312.000,3409.1151,N,11817.1624,W,1,10,0.8,147.7,M,-33.5,M,,0000*63
$GPGSA,A,3,07,21,18,06,10,05,16,26,29,15,,,1.5,0.8,1.3*3F
$GPGSV,3,1,10,06,82,025,41,07,75,336,42,21,48,289,38,18,36,207,37*7B
$GPGSV,3,2,10,10,30,043,28,29,27,098,26,15,25,271,30,26,24,113,25*7F
$GPGSV,3,3,10,16,14,318,19,05,11,176,26*79
$GPRMC,185312.000,A,3409.1151,N,11817.1624,W,26.34,301.09,200306,,,A*4A
$GPVTG,301.09,T,,M,26.34,N,48.8,K,A*01
$GPGGA,185313.000,3409.1190,N,11817.1701,W,1,10,0.8,147.8,M,-33.5,M,,0000*66
$GPRMC,185313.000,A,3409.1190,N,11817.1701,W,27.58,302.92,200306,,,A*4A
$GPVTG,302.92,T,,M,27.58,N,51.1,K,A*0A
$GPGGA,185314.000,3409.1234,N,11817.1780,W,1,10,0.8,147.8,M,-33.5,M,,0000*65
$GPRMC,185314.000,A,3409.1234,N,11817.1780,W,28.53,305.55,200306,,,A*41
$GPVTG,305.55,T,,M,28.53,N,52.8,K,A*08
$GPGGA,185315.000,3409.1282,N,11817.1860,W,1,10,0.8,147.8,M,-33.5,M,,0000*68
$GPRMC,185315.000,A,3409.1282,N,11817.1860,W,29.20,306.45,200306,,,A*4B
$GPVTG,306.45,T,,M,29.20,N,54.1,K,A*00
$GPGGA,185316.000,3409.1332,N,11817.1938,W,1,09,1.0,147.5,M,-33.5,M,,0000*61
$GPRMC,185316.000,A,3409.1332,N,11817.1938,W,29.63,307.17,200306,,,A*4F
$GPVTG,307.17,T,,M,29.63,N,54.9,K,A*09
$GPGGA,185317.000,3409.1383,N,11817.2016,W,1,09,1.0,147.0,M,-33.5,M,,0000*69
$GPGSA,A,3,07,21,18,06,10,16,26,29,15,,,,1.7,1.0,1.4*36
$GPGSV,3,1,10,06,82,027,41,07,76,336,41,21,48,290,38,18,36,207,35*73
$GPGSV,3,2,10,10,30,043,33,29,27,098,26,15,25,271,24,26,24,113,25*70
$GPGSV,3,3,10,16,14,318,29,05,11,176,11*7E
$GPRMC,185317.000,A,3409.1383,N,11817.2016,W,29.46,307.77,200306,,,A*43
$GPVTG,307.77,T,,M,29.46,N,54.6,K,A*07
$GPGGA,185318.000,3409.1433,N,11817.2096,W,1,09,1.0,147.0,M,-33.5,M,,0000*62
$GPRMC,185318.000,A,3409.1433,N,11817.2096,W,29.34,307.24,200306,,,A*4B
$GPVTG,307.24,T,,M,29.34,N,54.3,K,A*01
$GPGGA,185319.000,3409.1482,N,11817.2174,W,1,09,1.0,147.0,M,-33.5,M,,0000*64
$GPRMC,185319.000,A,3409.1482,N,11817.2174,W,29.14,307.87,200306,,,A*46
$GPVTG,307.87,T,,M,29.14,N,54.0,K,A*09
$GPGGA,185320.000,3409.1533,N,11817.2252,W,1,09,1.0,146.6,M,-33.5,M,,0000*65
$GPRMC,185320.000,A,3409.1533,N,11817.2252,W,29.24,308.07,200306,,,A*44
$GPVTG,308.07,T,,M,29.24,N,54.2,K,A*0F
$GPGGA,185321.000,3409.1583,N,11817.2330,W,1,09,1.0,146.3,M,-33.5,M,,0000*6F
$GPRMC,185321.000,A,3409.1583,N,11817.2330,W,29.02,307.99,200306,,,A*47
$GPVTG,307.99,T,,M,29.02,N,53.7,K,A*01
$GPGGA,185322.000,3409.1633,N,11817.2407,W,1,09,1.0,146.0,M,-33.5,M,,0000*64
$GPGSA,A,3,07,21,18,06,10,16,26,29,15,,,,1.7,1.0,1.4*36
$GPGSV,3,1,10,06,82,027,42,07,76,336,41,21,48,290,39,18,36,207,37*73
$GPGSV,3,2,10,10,30,043,34,29,27,098,27,15,25,271,24,26,24,113,26*75
$GPGSV,3,3,10,16,14,318,31,05,11,176,16*70
$GPRMC,185322.000,A,3409.1633,N,11817.2407,W,28.82,308.01,200306,,,A*48
$GPVTG,308.01,T,,M,28.82,N,53.4,K,A*05
$GPGGA,185323.000,3409.1683,N,11817.2484,W,1,09,1.0,145.8,M,-33.5,M,,0000*6E
$GPRMC,185323.000,A,3409.1683,N,11817.2484,W,28.69,307.94,200306,,,A*4F
$GPVTG,307.94,T,,M,28.69,N,53.1,K,A*06
$GPGGA,185324.000,3409.1733,N,11817.2560,W,1,09,1.0,145.6,M,-33.5,M,,0000*66
$GPRMC,185324.000,A,3409.1733,N,11817.2560,W,28.82,308.12,200306,,,A*4D
$GPVTG,308.12,T,,M,28.82,N,53.4,K,A*07
$GPGGA,185325.000,3409.1783,N,11817.2636,W,1,09,1.0,145.2,M,-33.5,M,,0000*68
$GPRMC,185325.000,A,3409.1783,N,11817.2636,W,28.81,308.33,200306,,,A*47
$GPVTG,308.33,T,,M,28.81,N,53.4,K,A*07
$GPGGA,185326.000,3409.1833,N,11817.2713,W,1,09,1.0,144.9,M,-33.5,M,,0000*63
$GPRMC,185326.000,A,3409.1833,N,11817.2713,W,28.71,308.33,200306,,,A*49
$GPVTG,308.33,T,,M,28.71,N,53.2,K,A*0E
$GPGGA,185327.000,3409.1883,N,11817.2789,W,1,09,1.0,144.5,M,-33.5,M,,0000*66
$GPGSA,A,3,07,21,18,06,10,16,26,29,15,,,,1.7,1.0,1.4*36
$GPGSV,3,1,10,06,82,027,42,07,76,336,41,21,48,290,39,18,36,207,37*73
$GPGSV,3,2,10,10,30,043,35,29,27,098,30,15,25,271,24,26,24,113,27*73
$GPGSV,3,3,10,16,14,318,31,05,11,176,11*77
$GPRMC,185327.000,A,3409.1883,N,11817.2789,W,28.70,308.47,200306,,,A*42
$GPVTG,308.47,T,,M,28.70,N,53.1,K,A*0F
$GPGGA,185328.000,3409.1933,N,11817.2864,W,1,09,1.0,144.3,M,-33.5,M,,0000*69
$GPRMC,185328.000,A,3409.1933,N,11817.2864,W,28.45,308.63,200306,,,A*4B
$GPVTG,308.63,T,,M,28.45,N,52.7,K,A*08
$GPGGA,185329.000,3409.1982,N,11817.2940,W,1,09,1.0,144.1,M,-33.5,M,,0000*67
$GPRMC,185329.000,A,3409.1982,N,11817.2940,W,28.39,307.70,200306,,,A*41
$GPVTG,307.70,T,,M,28.39,N,52.6,K,A*0F
$GPGGA,185330.000,3409.2030,N,11817.3017,W,1,09,1.0,144.1,M,-33.5,M,,0000*66
$GPRMC,185330.000,A,3409.2030,N,11817.3017,W,28.17,305.97,200306,,,A*47
$GPVTG,305.97,T,,M,28.17,N,52.2,K,A*0C
$GPGGA,185331.000,3409.2074,N,11817.3095,W,1,09,1.0,144.1,M,-33.5,M,,0000*6D
$GPRMC,185331.000,A,3409.2074,N,11817.3095,W,27.65,303.88,200306,,,A*4E
$GPVTG,303.88,T,,M,27.65,N,51.2,K,A*0D
$GPGGA,185332.000,3409.2115,N,11817.3173,W,1,09,1.0,144.0,M,-33.5,M,,0000*60
$GPGSA,A,3,07,21,18,06,10,16,26,29,15,,,,1.7,1.0,1.4*36
$GPGSV,3,1,10,06,82,027,42,07,76,336,41,21,48,290,38,18,36,207,37*72
$GPGSV,3,2,10,10,30,043,36,29,27,098,30,15,25,271,29,26,24,113,27*7D
$GPGSV,3,3,10,16,14,318,23,05,11,176,11*74
$GPRMC,185332.000,A,3409.2115,N,11817.3173,W,27.46,301.00,200306,,,A*41
$GPVTG,301.00,T,,M,27.46,N,50.9,K,A*04
$GPGGA,185333.000,3409.2153,N,11817.3256,W,1,09,1.0,143.9,M,-33.5,M,,0000*69
$GPRMC,185333.000,A,3409.2153,N,11817.3256,W,29.16,298.17,200306,,,A*4A
$GPVTG,298.17,T,,M,29.16,N,54.0,K,A*05
$GPGGA,185334.000,3409.2190,N,11817.3345,W,1,09,1.0,144.0,M,-33.5,M,,0000*6C
$GPRMC,185334.000,A,3409.2190,N,11817.3345,W,29.63,295.61,200306,,,A*4F
$GPVTG,295.61,T,,M,29.63,N,54.9,K,A*02
$GPGGA,185335.000,3409.2222,N,11817.3436,W,1,09,1.0,144.1,M,-33.5,M,,0000*65
$GPRMC,185335.000,A,3409.2222,N,11817.3436,W,29.25,292.47,200306,,,A*46
$GPVTG,292.47,T,,M,29.25,N,54.2,K,A*08
$GPGGA,185336.000,3409.2251,N,11817.3528,W,1,09,1.0,144.2,M,-33.5,M,,0000*6F
$GPRMC,185336.000,A,3409.2251,N,11817.3528,W,28.97,290.00,200306,,,A*46
$GPVTG,290.00,T,,M,28.97,N,53.6,K,A*02
$GPGGA,185337.000,3409.2275,N,11817.3622,W,1,09,1.0,144.5,M,-33.5,M,,0000*66
$GPGSA,A,3,07,21,18,06,10,16,26,29,15,,,,1.7,1.0,1.4*36
$GPGSV,3,1,10,06,82,027,42,07,76,336,41,21,48,290,39,18,36,207,31*75
$GPGSV,3,2,10,10,30,043,37,29,27,098,25,15,25,271,33,26,24,113,34*71
$GPGSV,3,3,10,16,14,318,22,05,11,176,11*75
$GPRMC,185337.000,A,3409.2275,N,11817.3622,W,28.12,285.94,200306,,,A*4C
$GPVTG,285.94,T,,M,28.12,N,52.1,K,A*00
$GPGGA,185338.000,3409.2295,N,11817.3714,W,1,09,1.0,144.8,M,-33.5,M,,0000*6E
$GPRMC,185338.000,A,3409.2295,N,11817.3714,W,27.30,284.38,200306,,,A*41
$GPVTG,284.38,T,,M,27.30,N,50.6,K,A*0D
$GPGGA,185339.000,3409.2311,N,11817.3803,W,1,08,1.1,145.1,M,-33.5,M,,0000*63
$GPRMC,185339.000,A,3409.2311,N,11817.3803,W,26.41,280.99,200306,,,A*4C
$GPVTG,280.99,T,,M,26.41,N,48.9,K,A*03
$GPGGA,185340.000,3409.2324,N,11817.3891,W,1,09,1.0,145.5,M,-33.5,M,,0000*64
$GPRMC,185340.000,A,3409.2324,N,11817.3891,W,25.96,280.35,200306,,,A*40
$GPVTG,280.35,T,,M,25.96,N,48.1,K,A*04
$GPGGA,185341.000,3409.2337,N,11817.3977,W,1,09,1.0,145.8,M,-33.5,M,,0000*63
$GPRMC,185341.000,A,3409.2337,N,11817.3977,W,25.74,280.77,200306,,,A*40
$GPVTG,280.77,T,,M,25.74,N,47.7,K,A*07
$GPGGA,185342.000,3409.2349,N,11817.4064,W,1,09,1.0,146.1,M,-33.5,M,,0000*6F
$GPGSA,A,3,07,21,18,06,10,16,26,29,15,,,,1.7,1.0,1.4*36
$GPGSV,3,1,10,06,82,027,42,07,76,336,42,21,48,290,33,18,36,207,39*74
$GPGSV,3,2,10,10,30,043,35,29,27,098,28,15,25,271,33,26,24,113,26*7D
$GPGSV,3,3,10,16,14,318,25,05,11,176,10*73
$GPRMC,185342.000,A,3409.2349,N,11817.4064,W,25.84,280.27,200306,,,A*4C
$GPVTG,280.27,T,,M,25.84,N,47.8,K,A*02
$GPGGA,185343.000,3409.2362,N,11817.4151,W,1,09,1.0,146.4,M,-33.5,M,,0000*65
$GPRMC,185343.000,A,3409.2362,N,11817.4151,W,26.61,280.50,200306,,,A*4B
$GPVTG,280.50,T,,M,26.61,N,49.3,K,A*0F
$GPGGA,185344.000,3409.2375,N,11817.4241,W,1,09,1.0,146.8,M,-33.5,M,,0000*6A
$GPRMC,185344.000,A,3409.2375,N,11817.4241,W,26.85,280.60,200306,,,A*41
$GPVTG,280.60,T,,M,26.85,N,49.7,K,A*02
$GPGGA,185345.000,3409.2389,N,11817.4332,W,1,09,1.0,147.3,M,-33.5,M,,0000*67
$GPRMC,185345.000,A,3409.2389,N,11817.4332,W,26.76,280.22,200306,,,A*4C
$GPVTG,280.22,T,,M,26.76,N,49.6,K,A*09
$GPGGA,185346.000,3409.2403,N,11817.4423,W,1,09,1.0,147.6,M,-33.5,M,,0000*63
$GPRMC,185346.000,A,3409.2403,N,11817.4423,W,27.14,280.71,200306,,,A*4E
$GPVTG,280.71,T,,M,27.14,N,50.3,K,A*07
$GPGGA,185347.000,3409.2417,N,11817.4513,W,1,09,1.0,147.8,M,-33.5,M,,0000*6B
$GPGSA,A,3,07,21,18,06,10,16,26,29,15,,,,1.7,1.0,1.4*36
$GPGSV,3,1,10,06,82,029,42,07,76,336,43,21,48,290,34,18,36,207,38*7D
$GPGSV,3,2,10,10,30,043,37,29,27,098,28,15,25,271,33,26,25,113,32*7B
$GPGSV,3,3,10,16,14,317,22,05,10,176,10*7A
$GPRMC,185347.000,A,3409.2417,N,11817.4513,W,26.97,280.59,200306,,,A*48
$GPVTG,280.59,T,,M,26.97,N,49.9,K,A*05
$GPGGA,185348.000,3409.2430,N,11817.4602,W,1,09,1.0,147.9,M,-33.5,M,,0000*63
$GPRMC,185348.000,A,3409.2430,N,11817.4602,W,26.81,280.54,200306,,,A*4B
$GPVTG,280.54,T,,M,26.81,N,49.7,K,A*01
$GPGGA,185349.000,3409.2443,N,11817.4690,W,1,09,1.0,148.0,M,-33.5,M,,0000*6B
$GPRMC,185349.000,A,3409.2443,N,11817.4690,W,26.73,281.30,200306,,,A*4B
$GPVTG,281.30,T,,M,26.73,N,49.5,K,A*0D
$GPGGA,185350.000,3409.2459,N,11817.4777,W,1,09,1.0,148.0,M,-33.5,M,,0000*60
$GPRMC,185350.000,A,3409.2459,N,11817.4777,W,26.84,282.77,200306,,,A*48
$GPVTG,282.77,T,,M,26.84,N,49.7,K,A*07
$GPGGA,185351.000,3409.2476,N,11817.4865,W,1,09,1.0,148.0,M,-33.5,M,,0000*60
$GPRMC,185351.000,A,3409.2476,N,11817.4865,W,26.69,284.12,200306,,,A*4E
$GPVTG,284.12,T,,M,26.69,N,49.4,K,A*02
$GPGGA,185352.000,3409.2495,N,11817.4952,W,1,09,1.0,148.1,M,-33.5,M,,0000*6A
$GPGSA,A,3,07,21,18,06,10,16,26,29,15,,,,1.7,1.0,1.4*36
$GPGSV,3,1,10,06,82,029,42,07,76,336,43,21,48,290,35,18,36,207,38*7C
$GPGSV,3,2,10,10,30,043,37,29,27,098,29,15,25,271,33,26,25,113,35*7D
$GPGSV,3,3,10,16,14,317,23,05,10,176,*7A
$GPRMC,185352.000,A,3409.2495,N,11817.4952,W,26.54,285.44,200306,,,A*49
$GPVTG,285.44,T,,M,26.54,N,49.2,K,A*08
$GPGGA,185353.000,3409.2516,N,11817.5038,W,1,09,1.0,148.2,M,-33.5,M,,0000*66
$GPRMC,185353.000,A,3409.2516,N,11817.5038,W,26.42,287.07,200306,,,A*44
$GPVTG,287.07,T,,M,26.42,N,48.9,K,A*00
$GPGGA,185354.000,3409.2539,N,11817.5123,W,1,09,1.0,148.3,M,-33.5,M,,0000*66
$GPRMC,185354.000,A,3409.2539,N,11817.5123,W,26.19,288.38,200306,,,A*48
$GPVTG,288.38,T,,M,26.19,N,48.5,K,A*01
$GPGGA,185355.000,3409.2563,N,11817.5206,W,1,09,1.0,148.4,M,-33.5,M,,0000*6B
$GPRMC,185355.000,A,3409.2563,N,11817.5206,W,26.03,289.71,200306,,,A*45
$GPVTG,289.71,T,,M,26.03,N,48.2,K,A*01
$GPGGA,185356.000,3409.2588,N,11817.5288,W,1,09,1.0,148.5,M,-33.5,M,,0000*6A
$GPRMC,185356.000,A,3409.2588,N,11817.5288,W,25.80,290.59,200306,,,A*4F
$GPVTG,290.59,T,,M,25.80,N,47.8,K,A*0E
$GPGGA,185357.000,3409.2613,N,11817.5369,W,1,09,1.0,148.6,M,-33.5,M,,0000*67
$GPGSA,A,3,07,21,18,06,10,16,26,29,15,,,,1.7,1.0,1.4*36
$GPGSV,3,1,10,06,82,029,42,07,76,336,43,21,48,290,41,18,36,207,27*71
$GPGSV,3,2,10,10,30,043,37,29,27,098,29,15,25,271,33,26,25,113,36*7E
$GPGSV,3,3,10,16,14,317,22,05,10,176,11*7B
$GPRMC,185357.000,A,3409.2613,N,11817.5369,W,25.70,291.08,200306,,,A*4B
$GPVTG,291.08,T,,M,25.70,N,47.6,K,A*0A
$GPGGA,185358.000,3409.2640,N,11817.5450,W,1,09,1.0,148.7,M,-33.5,M,,0000*62
$GPRMC,185358.000,A,3409.2640,N,11817.5450,W,25.70,291.95,200306,,,A*4B
$GPVTG,291.95,T,,M,25.70,N,47.6,K,A*0E
$GPGGA,185359.000,3409.2666,N,11817.5530,W,1,09,1.0,148.9,M,-33.5,M,,0000*6E
$GPRMC,185359.000,A,3409.2666,N,11817.5530,W,25.83,292.03,200306,,,A*49
$GPVTG,292.03,T,,M,25.83,N,47.8,K,A*00
$GPGGA,185400.000,3409.2693,N,11817.5611,W,1,09,1.0,148.9,M,-33.5,M,,0000*6F
$GPRMC,185400.000,A,3409.2693,N,11817.5611,W,25.98,291.82,200306,,,A*48
$GPVTG,291.82,T,,M,25.98,N,48.1,K,A*06
$GPGGA,185401.000,3409.2719,N,11817.5692,W,1,09,1.0,149.1,M,-33.5,M,,0000*6F
$GPRMC,185401.000,A,3409.2719,N,11817.5692,W,26.10,291.53,200306,,,A*4E
$GPVTG,291.53,T,,M,26.10,N,48.3,K,A*0B
$GPGGA,185402.000,3409.2744,N,11817.5773,W,1,09,1.0,149.2,M,-33.5,M,,0000*69
$GPGSA,A,3,07,21,18,06,10,16,26,29,15,,,,1.7,1.0,1.4*36
$GPGSV,3,1,10,06,82,029,42,07,76,336,43,21,48,290,41,18,36,207,30*77
$GPGSV,3,2,10,10,30,043,35,29,27,098,29,15,25,271,33,26,25,113,36*7C
$GPGSV,3,3,10,16,14,317,23,05,10,176,10*7B
$GPRMC,185402.000,A,3409.2744,N,11817.5773,W,25.88,291.10,200306,,,A*4E
$GPVTG,291.10,T,,M,25.88,N,47.9,K,A*0B
$GPGGA,185403.000,3409.2768,N,11817.5854,W,1,09,1.0,149.4,M,-33.5,M,,0000*6A
$GPRMC,185403.000,A,3409.2768,N,11817.5854,W,25.37,290.38,200306,,,A*44
$GPVTG,290.38,T,,M,25.37,N,47.0,K,A*0D
$GPGGA,185404.000,3409.2792,N,11817.5931,W,1,09,1.0,149.6,M,-33.5,M,,0000*68
$GPRMC,185404.000,A,3409.2792,N,11817.5931,W,24.02,290.07,200306,,,A*4F
$GPVTG,290.07,T,,M,24.02,N,44.5,K,A*00
$GPGGA,185405.000,3409.2814,N,11817.6004,W,1,09,1.0,149.7,M,-33.5,M,,0000*65
$GPRMC,185405.000,A,3409.2814,N,11817.6004,W,22.20,289.90,200306,,,A*43
$GPVTG,289.90,T,,M,22.20,N,41.1,K,A*01
$GPGGA,185406.000,3409.2834,N,11817.6070,W,1,09,1.0,149.9,M,-33.5,M,,0000*69
$GPRMC,185406.000,A,3409.2834,N,11817.6070,W,20.20,289.80,200306,,,A*42
$GPVTG,289.80,T,,M,20.20,N,37.4,K,A*06
$GPGGA,185407.000,3409.2851,N,11817.6129,W,1,09,1.0,150.0,M,-33.5,M,,0000*67
$GPGSA,A,3,07,21,18,06,10,16,26,29,15,,,,1.7,1.0,1.4*36
$GPGSV,3,1,10,06,82,029,42,07,76,336,43,21,48,290,41,18,36,207,25*73
$GPGSV,3,2,10,10,30,043,35,29,27,098,29,15,25,271,33,26,25,113,35*7F
$GPGSV,3,3,10,16,14,317,23,05,10,176,*7A
$GPRMC,185407.000,A,3409.2851,N,11817.6129,W,17.98,288.54,200306,,,A*42
$GPVTG,288.54,T,,M,17.98,N,33.3,K,A*0A
$GPGGA,185408.000,3409.2866,N,11817.6180,W,1,09,1.0,150.0,M,-33.5,M,,0000*6F
